Suburb,Address,Rooms,Type,Price,Method,SellerG,Date,Distance,Postcode,Bathroom,Car,Landsize,BuildingArea,YearBuilt,CouncilArea,Latitude,Longitude,Regionname,DateSold,YearSold,Age,Grant
Abbotsford,25 Bloomburg St,2,h,1035000,S,Biggin,2016-02,2.5,3067,1,0,156,79,1900,Yarra City Council,-37.8079,144.9934,Northern Metropolitan,4/2/2016,2016,116,FALSE
Abbotsford,5 Charles St,3,h,1465000,SP,Biggin,2017-03,2.5,3067,2,0,134,150,1900,Yarra City Council,-37.8093,144.9944,Northern Metropolitan,4/3/2017,2016,117,FALSE
Abbotsford,55a Park St,4,h,1600000,VB,Nelson,2016-06,2.5,3067,1,2,120,142,2014,Yarra City Council,-37.8072,144.9941,Northern Metropolitan,4/6/2016,2016,2,TRUE
Abbotsford,124 Yarra St,3,h,1876000,S,Nelson,2016-05,2.5,3067,2,0,245,210,1910,Yarra City Council,-37.8024,144.9993,Northern Metropolitan,7/5/2016,2016,106,FALSE
Abbotsford,98 Charles St,2,h,1636000,S,Nelson,2016-10,2.5,3067,1,2,256,107,1890,Yarra City Council,-37.806,144.9954,Northern Metropolitan,8/10/2016,2016,126,FALSE
Abbotsford,10 Valiant St,2,h,1097000,S,Biggin,2016-10,2.5,3067,1,2,220,75,1900,Yarra City Council,-37.801,144.9989,Northern Metropolitan,8/10/2016,2016,116,FALSE
Abbotsford,40 Nicholson St,3,h,1350000,VB,Nelson,2016-11,2.5,3067,2,2,214,190,2005,Yarra City Council,-37.8085,144.9964,Northern Metropolitan,12/11/2016,2016,11,TRUE
Abbotsford,123/56 Nicholson St,2,u,750000,S,Biggin,2016-11,2.5,3067,2,1,0,94,2009,Yarra City Council,-37.8078,144.9965,Northern Metropolitan,12/11/2016,2016,7,TRUE
Abbotsford,16 William St,2,h,1310000,S,Jellis,2016-10,2.5,3067,1,2,238,97,1890,Yarra City Council,-37.809,144.9976,Northern Metropolitan,15/10/2016,2016,126,FALSE
Abbotsford,42 Henry St,3,h,1200000,S,Jellis,2016-07,2.5,3067,2,1,113,110,1880,Yarra City Council,-37.8056,144.993,Northern Metropolitan,16/7/2016,2016,136,FALSE
Abbotsford,78 Yarra St,3,h,1176500,S,LITTLE,2016-07,2.5,3067,1,1,138,105,1890,Yarra City Council,-37.8021,144.9965,Northern Metropolitan,16/7/2016,2016,126,FALSE
Abbotsford,42 Valiant St,2,h,890000,S,Biggin,2016-09,2.5,3067,1,1,150,73,1985,Yarra City Council,-37.8011,145.0004,Northern Metropolitan,17/9/2016,2016,31,FALSE
Abbotsford,3/72 Charles St,4,h,1330000,PI,Kay,2017-03,2.5,3067,2,2,780,135,1900,Yarra City Council,-37.8073,144.9952,Northern Metropolitan,18/3/2017,2016,117,FALSE
Abbotsford,13/11 Nicholson St,3,t,900000,S,Beller,2017-03,2.5,3067,2,2,0,116.5,2010,Yarra City Council,-37.8093,144.9959,Northern Metropolitan,18/3/2017,2016,7,TRUE
Abbotsford,6/219 Nicholson St,2,u,500000,S,Collins,2016-06,2.5,3067,1,1,0,60,1970,Yarra City Council,-37.8015,144.9972,Northern Metropolitan,18/6/2016,2016,46,FALSE
Abbotsford,52a William St,2,h,1100000,PI,Biggin,2016-06,2.5,3067,2,1,124,135,2013,Yarra City Council,-37.8079,144.9977,Northern Metropolitan,18/6/2016,2016,3,TRUE
Abbotsford,49 Park St,2,h,1315000,S,Marshall,2016-11,2.5,3067,1,0,147,85,1900,Yarra City Council,-37.808,144.994,Northern Metropolitan,19/11/2016,2016,116,FALSE
Abbotsford,48 Abbotsford St,3,h,1447500,PI,Nelson,2016-08,2.5,3067,3,1,166,174,2012,Yarra City Council,-37.8017,145.0001,Northern Metropolitan,22/8/2016,2016,4,TRUE
Abbotsford,159 Park St,2,h,1135000,S,Nelson,2016-08,2.5,3067,2,2,98,128,1920,Yarra City Council,-37.8005,144.9952,Northern Metropolitan,22/8/2016,2016,96,FALSE
Abbotsford,60 Stafford St,3,h,1290000,S,Biggin,2017-02,2.5,3067,1,1,168,124,1950,Yarra City Council,-37.8007,144.9958,Northern Metropolitan,25/2/2017,2016,67,FALSE
Abbotsford,11/205 Gipps St,1,u,470000,S,Nelson,2016-07,2.5,3067,1,1,0,50,2013,Yarra City Council,-37.8055,144.9961,Northern Metropolitan,26/7/2016,2016,3,TRUE
Abbotsford,47 Studley St,2,h,1180000,S,Jellis,2016-11,2.5,3067,1,0,162,91,1900,Yarra City Council,-37.8016,144.9956,Northern Metropolitan,27/11/2016,2016,116,FALSE
Abbotsford,45 Yarra St,3,h,1195000,SP,Jellis,2016-11,2.5,3067,2,1,120,128,1998,Yarra City Council,-37.8022,144.9954,Northern Metropolitan,27/11/2016,2016,18,TRUE
Abbotsford,200 Nicholson St,2,h,1012500,S,Nelson,2016-05,2.5,3067,1,0,182,82,1900,Yarra City Council,-37.8021,144.9976,Northern Metropolitan,28/5/2016,2016,116,FALSE
Abbotsford,27 Charles St,2,h,1030000,S,Biggin,2016-07,2.5,3067,1,1,172,81,1930,Yarra City Council,-37.8086,144.9946,Northern Metropolitan,30/7/2016,2016,86,FALSE
Airport West,154 Halsey Rd,3,t,840000,PI,Nelson,2016-09,13.5,3042,2,1,303,225,2016,Moonee Valley City Council,-37.718,144.878,Western Metropolitan,3/9/2016,2016,0,TRUE
Airport West,50 Bedford St,3,h,730000,VB,Nelson,2016-12,13.5,3042,2,1,0,145,1965,Moonee Valley City Council,-37.7203,144.8755,Western Metropolitan,3/12/2016,2016,51,FALSE
Airport West,50 Bedford St,3,h,770000,SP,Nelson,2017-03,13.5,3042,2,1,0,145,1965,Moonee Valley City Council,-37.7203,144.8755,Western Metropolitan,4/3/2017,2016,52,FALSE
Airport West,23 Hart St,2,h,603000,S,Nelson,2017-03,13.5,3042,1,1,272,84,1950,Moonee Valley City Council,-37.7294,144.888,Western Metropolitan,4/3/2017,2016,67,FALSE
Airport West,1/80 Hawker St,3,t,700000,S,Brad,2017-03,13.5,3042,2,2,239,134,2009,Moonee Valley City Council,-37.7218,144.8837,Western Metropolitan,4/3/2017,2016,8,TRUE
Airport West,1/37 Hillside Gr,3,h,600000,S,Maddison,2017-03,13.5,3042,1,1,290,116,1980,Moonee Valley City Council,-37.7273,144.8744,Western Metropolitan,4/3/2017,2016,37,FALSE
Airport West,2/49 McIntosh St,2,u,500000,VB,Barry,2017-03,13.5,3042,1,1,168,86,2011,Moonee Valley City Council,-37.7215,144.8864,Western Metropolitan,4/3/2017,2016,6,TRUE
Airport West,11 Harrington Rd,6,h,725000,SP,Barry,2016-05,13.5,3042,3,2,976,186,1980,Moonee Valley City Council,-37.7239,144.8735,Western Metropolitan,7/5/2016,2016,36,FALSE
Airport West,2/252 Parer Rd,2,t,450000,S,Barry,2016-05,13.5,3042,1,1,110,90,2015,Moonee Valley City Council,-37.7216,144.871,Western Metropolitan,7/5/2016,2016,1,TRUE
Airport West,3/19 Hart St,2,u,515000,S,Barry,2016-11,13.5,3042,1,1,141,73,2013,Moonee Valley City Council,-37.7298,144.8883,Western Metropolitan,7/11/2016,2016,3,TRUE
Airport West,2/62 Clydesdale Rd,2,u,530000,S,Nelson,2016-09,13.5,3042,1,1,120,94,2012,Moonee Valley City Council,-37.7234,144.8792,Western Metropolitan,10/9/2016,2016,4,TRUE
Airport West,3 Deidre Ct,3,h,895000,PI,Rendina,2016-09,13.5,3042,1,6,1063,133,1975,Moonee Valley City Council,-37.7249,144.8728,Western Metropolitan,10/9/2016,2016,41,FALSE
Airport West,13 Etzel St,3,h,805000,S,Nelson,2016-12,13.5,3042,1,1,0,105,1950,Moonee Valley City Council,-37.7217,144.8783,Western Metropolitan,10/12/2016,2016,66,FALSE
Airport West,1/43 Cameron St,3,u,752000,S,Nelson,2017-02,13.5,3042,1,1,265,130,1993,Moonee Valley City Council,-37.7302,144.8855,Western Metropolitan,11/2/2017,2016,24,TRUE
Airport West,2/40 Earl St,3,t,700000,PI,Brad,2016-10,13.5,3042,2,2,165,133,2009,Moonee Valley City Council,-37.727,144.887,Western Metropolitan,15/10/2016,2016,7,TRUE
Airport West,180 Parer Rd,3,h,830000,S,Barry,2016-04,13.5,3042,1,2,971,113,1960,Moonee Valley City Council,-37.7186,144.876,Western Metropolitan,16/4/2016,2016,56,FALSE
Airport West,4/54 Hawker St,2,u,462500,S,Barry,2016-07,13.5,3042,1,1,164,93,2003,Moonee Valley City Council,-37.7218,144.8863,Western Metropolitan,16/7/2016,2016,13,TRUE
Airport West,174 Parer Rd,2,h,675000,S,Barry,2016-07,13.5,3042,1,1,612,100,1975,Moonee Valley City Council,-37.7187,144.8765,Western Metropolitan,16/7/2016,2016,41,FALSE
Airport West,138 Victory Rd,3,h,1042000,S,Nelson,2016-07,13.5,3042,2,5,612,174,1950,Moonee Valley City Council,-37.7173,144.8796,Western Metropolitan,16/7/2016,2016,66,FALSE
Airport West,6 Kittyhawk St,4,h,773000,S,Brad,2016-09,13.5,3042,3,4,531,309,1980,Moonee Valley City Council,-37.7263,144.8679,Western Metropolitan,17/9/2016,2016,36,FALSE
Airport West,478 Fullarton Rd,3,h,810000,PI,Barry,2017-03,13.5,3042,3,2,555,192,1980,Moonee Valley City Council,-37.7285,144.8694,Western Metropolitan,18/3/2017,2016,37,FALSE
Airport West,144 Marshall Rd,3,h,715000,S,Rendina,2017-03,13.5,3042,2,2,422,126,1995,Moonee Valley City Council,-37.7164,144.8792,Western Metropolitan,18/3/2017,2016,22,TRUE
Airport West,3/7 South Rd,3,t,540000,SP,Nelson,2016-06,13.5,3042,2,1,161,101,2010,Moonee Valley City Council,-37.7231,144.8802,Western Metropolitan,18/6/2016,2016,6,TRUE
Airport West,37 North St,3,t,825000,SP,Barry,2016-11,13.5,3042,2,1,293,102,1960,Moonee Valley City Council,-37.72,144.8776,Western Metropolitan,19/11/2016,2016,56,FALSE
Airport West,10 Hilbert Rd,3,h,685000,S,Barry,2016-05,13.5,3042,1,1,579,113,1975,Moonee Valley City Council,-37.7226,144.8733,Western Metropolitan,22/5/2016,2016,41,FALSE
Airport West,85 Roberts Rd,4,h,900000,S,Harcourts,2016-11,13.5,3042,2,3,628,146,1975,Moonee Valley City Council,-37.7256,144.8739,Western Metropolitan,27/11/2016,2016,41,FALSE
Albert Park,105 Kerferd Rd,2,h,1275000,S,hockingstuart,2016-09,3.3,3206,1,0,120,82,1900,Port Phillip City Council,-37.8459,144.9555,Southern Metropolitan,3/9/2016,2016,116,FALSE
Albert Park,112 Beaconsfield Pde,3,h,2850000,PI,Buxton,2017-03,3.3,3206,2,0,211,198,1890,Port Phillip City Council,-37.8481,144.9499,Southern Metropolitan,4/3/2017,2016,127,FALSE
Albert Park,94 Graham St,3,h,1850000,S,Greg,2017-03,3.3,3206,2,0,128,133,1890,Port Phillip City Council,-37.8452,144.9488,Southern Metropolitan,4/3/2017,2016,127,FALSE
Albert Park,396 Montague St,2,h,1436000,S,RT,2017-03,3.3,3206,1,0,130,81,1900,Port Phillip City Council,-37.8431,144.9565,Southern Metropolitan,4/3/2017,2016,117,FALSE
Albert Park,75 Graham St,2,h,1110000,S,Marshall,2016-08,3.3,3206,1,0,147,132,1900,Port Phillip City Council,-37.8444,144.9484,Southern Metropolitan,6/8/2016,2016,116,FALSE
Albert Park,104 Richardson St,4,h,2300000,S,Marshall,2016-05,3.3,3206,2,1,153,180,1880,Port Phillip City Council,-37.8447,144.9523,Southern Metropolitan,7/5/2016,2016,136,FALSE
Albert Park,1 Moubray St,3,h,1800000,VB,Greg,2016-11,3.3,3206,2,1,132,159,1996,Port Phillip City Council,-37.8415,144.952,Southern Metropolitan,7/11/2016,2016,20,TRUE
Albert Park,29 Faussett St,2,h,2120000,S,Greg,2016-09,3.3,3206,1,1,199,107,1900,Port Phillip City Council,-37.8422,144.9554,Southern Metropolitan,10/9/2016,2016,116,FALSE
Albert Park,24 Kerferd Pl,3,h,1800000,S,Marshall,2016-09,3.3,3206,2,1,90,122,1900,Port Phillip City Council,-37.8421,144.9571,Southern Metropolitan,10/9/2016,2016,116,FALSE
Albert Park,2 Dundas Pl,3,h,2615000,S,Cayzer,2016-12,3.3,3206,2,1,177,181,1880,Port Phillip City Council,-37.8415,144.9585,Southern Metropolitan,10/12/2016,2016,136,FALSE
Albert Park,4a Gatehouse La,3,h,1370000,S,Greg,2016-06,3.3,3206,2,2,0,85,2000,Port Phillip City Council,-37.8451,144.9511,Southern Metropolitan,12/6/2016,2016,16,TRUE
Albert Park,65 Graham St,2,h,1322500,S,Greg,2016-10,3.3,3206,1,0,149,98,1890,Port Phillip City Council,-37.8443,144.9481,Southern Metropolitan,15/10/2016,2016,126,FALSE
Albert Park,364 Montague St,2,h,1562500,S,Greg,2016-10,3.3,3206,1,0,141,83,1890,Port Phillip City Council,-37.8424,144.9562,Southern Metropolitan,15/10/2016,2016,126,FALSE
Albert Park,86 Mills St,3,h,2000000,VB,RT,2016-04,3.3,3206,2,1,211,147,1900,Port Phillip City Council,-37.847,144.9575,Southern Metropolitan,16/4/2016,2016,116,FALSE
Albert Park,129 Kerferd Rd,3,h,1900000,S,Greg,2017-03,3.3,3206,1,0,209,132,1900,Port Phillip City Council,-37.8468,144.9546,Southern Metropolitan,18/3/2017,2016,117,FALSE
Albert Park,97 Page St,3,h,3010000,S,Greg,2017-03,3.3,3206,2,0,147,146,1890,Port Phillip City Council,-37.8473,144.9551,Southern Metropolitan,18/3/2017,2016,127,FALSE
Albert Park,55 Withers St,4,h,2800000,VB,Cayzer,2016-06,3.3,3206,3,1,327,254,1910,Port Phillip City Council,-37.8467,144.9475,Southern Metropolitan,18/6/2016,2016,106,FALSE
Albert Park,55 Merton St,3,h,2100000,SP,Marshall,2016-04,3.3,3206,1,1,120,123,1900,Port Phillip City Council,-37.8427,144.9546,Southern Metropolitan,23/4/2016,2016,116,FALSE
Albert Park,49 Page St,3,h,2000000,PI,Marshall,2016-09,3.3,3206,1,1,238,131,1890,Port Phillip City Council,-37.8461,144.9528,Southern Metropolitan,24/9/2016,2016,126,FALSE
Albert Park,13/52 Moubray St,1,u,442500,S,Marshall,2017-02,3.3,3206,1,0,0,34,1970,Port Phillip City Council,-37.8421,144.9517,Southern Metropolitan,25/2/2017,2016,47,FALSE
Albert Park,115 Page St,4,h,4735000,S,Marshall,2017-02,3.3,3206,2,1,330,207,1910,Port Phillip City Council,-37.8477,144.9558,Southern Metropolitan,25/2/2017,2016,107,FALSE
Albert Park,27 Barrett St,4,h,2140000,S,Greg,2016-06,3.3,3206,2,1,183,145,1880,Port Phillip City Council,-37.8434,144.9495,Southern Metropolitan,27/6/2016,2016,136,FALSE
Albert Park,6 Brooke St,2,h,980000,S,Greg,2016-05,3.3,3206,1,0,79,68,1890,Port Phillip City Council,-37.8387,144.9519,Southern Metropolitan,28/5/2016,2016,126,FALSE
Albert Park,17 Reed St,3,h,1740000,PI,Marshall,2016-08,3.3,3206,2,2,147,134,1890,Port Phillip City Council,-37.8448,144.9453,Southern Metropolitan,28/8/2016,2016,126,FALSE
Albert Park,9 Durham St,1,h,985000,S,Marshall,2016-07,3.3,3206,1,0,81,54,1900,Port Phillip City Council,-37.8411,144.9497,Southern Metropolitan,30/7/2016,2016,116,FALSE
Alphington,6 Smith St,4,h,2000000,S,Brace,2016-09,6.4,3078,2,4,853,263,1930,Darebin City Council,-37.7707,145.0318,Northern Metropolitan,3/9/2016,2016,86,FALSE
Alphington,5/6 Yarralea St,3,h,1110000,S,Jellis,2016-09,6.4,3078,2,2,208,165,2013,Darebin City Council,-37.7854,145.0325,Northern Metropolitan,3/9/2016,2016,3,TRUE
Alphington,44 Shiers St,4,h,1717500,S,Collins,2016-10,6.4,3078,2,1,599,203,1925,Darebin City Council,-37.7717,145.031,Northern Metropolitan,8/10/2016,2016,91,FALSE
Alphington,83 Fulham Rd,5,h,2840000,S,Nelson,2016-06,6.4,3078,4,4,809,165,1910,Darebin City Council,-37.775,145.0268,Northern Metropolitan,12/6/2016,2016,106,FALSE
Alphington,3/19 Harker St,2,u,525500,S,Miles,2016-11,6.4,3078,1,1,88,60,1960,Darebin City Council,-37.7791,145.0306,Northern Metropolitan,12/11/2016,2016,56,FALSE
Alphington,4/2 Miller St,2,t,805000,S,Miles,2016-11,6.4,3078,2,3,155,140,2004,Darebin City Council,-37.7804,145.0308,Northern Metropolitan,12/11/2016,2016,12,TRUE
Alphington,10 Bennett St,4,h,1830000,S,Nelson,2016-11,6.4,3078,2,2,606,112,1970,Darebin City Council,-37.7743,145.0316,Northern Metropolitan,19/11/2016,2016,46,FALSE
Alphington,38 Bennett St,4,h,2100000,S,Nelson,2016-11,6.4,3078,2,2,575,271,2008,Darebin City Council,-37.7723,145.0319,Northern Metropolitan,19/11/2016,2016,8,TRUE
Alphington,2c Hamilton St,3,h,865000,SP,hockingstuart,2016-05,6.4,3078,1,1,180,131,2010,Darebin City Council,-37.7802,145.0243,Northern Metropolitan,22/5/2016,2016,6,TRUE
Alphington,5/5 Yarana Rd,2,u,390000,VB,Nelson,2016-05,6.4,3078,1,1,0,60,1960,Darebin City Council,-37.7773,145.0314,Northern Metropolitan,22/5/2016,2016,56,FALSE
Alphington,1/14 Fulham Rd,2,u,512000,S,Love,2017-02,6.4,3078,1,1,0,61,1965,Darebin City Council,-37.7805,145.0262,Northern Metropolitan,25/2/2017,2016,52,FALSE
Alphington,11 Margaret Gr,4,h,1900000,SP,McGrath,2016-11,6.4,3078,2,2,556,272,1930,Darebin City Council,-37.7844,145.0225,Northern Metropolitan,27/11/2016,2016,86,FALSE
Alphington,42 Shiers St,4,h,1950000,S,Jellis,2016-07,6.4,3078,2,3,589,210,1920,Darebin City Council,-37.7719,145.0309,Northern Metropolitan,30/7/2016,2016,96,FALSE
Altona,158 Queen St,3,h,520000,VB,Greg,2016-09,13.8,3018,2,1,352,242,2015,Hobsons Bay City Council,-37.87,144.825,Western Metropolitan,3/9/2016,2016,1,TRUE
Altona,59 Bracken Gr,5,h,1525000,S,Greg,2016-12,13.8,3018,3,3,729,268,2005,Hobsons Bay City Council,-37.8721,144.8105,Western Metropolitan,3/12/2016,2016,11,TRUE
Altona,1/123 Blyth St,2,t,720000,S,hockingstuart,2016-02,13.8,3018,1,2,292,125,2013,Hobsons Bay City Council,-37.8687,144.8197,Western Metropolitan,4/2/2016,2016,3,TRUE
Altona,4 Blyth St,3,h,1120000,S,Barlow,2017-03,13.8,3018,1,2,506,120,1930,Hobsons Bay City Council,-37.8693,144.8375,Western Metropolitan,4/3/2017,2016,87,FALSE
Altona,29 Rose St,4,h,1780000,SP,Greg,2016-06,13.8,3018,3,6,1057,220,1962,Hobsons Bay City Council,-37.8681,144.819,Western Metropolitan,4/6/2016,2016,54,FALSE
Altona,1/170 Blyth St,3,u,630000,S,Barlow,2016-08,13.8,3018,1,2,311,94,1955,Hobsons Bay City Council,-37.8702,144.8143,Western Metropolitan,6/8/2016,2016,61,FALSE
Altona,156 Maidstone St,3,h,660000,VB,Greg,2016-05,13.8,3018,1,1,602,123,1955,Hobsons Bay City Council,-37.8616,144.8116,Western Metropolitan,7/5/2016,2016,61,FALSE
Altona,1/136 Queen St,2,u,580000,S,Barlow,2016-10,13.8,3018,1,1,225,93,1988,Hobsons Bay City Council,-37.8696,144.827,Western Metropolitan,8/10/2016,2016,28,TRUE
Altona,173 Queen St,3,h,1335000,S,hockingstuart,2016-10,13.8,3018,1,4,777,22,1953,Hobsons Bay City Council,-37.8697,144.8249,Western Metropolitan,8/10/2016,2016,63,FALSE
Altona,1/265 Queen St,3,t,800000,SP,hockingstuart,2016-10,13.8,3018,2,2,280,130,1997,Hobsons Bay City Council,-37.8734,144.8143,Western Metropolitan,8/10/2016,2016,19,TRUE
Altona,3/26 Grieve Pde,2,u,510000,S,Village,2016-09,13.8,3018,1,1,127,76,1990,Hobsons Bay City Council,-37.8686,144.8182,Western Metropolitan,10/9/2016,2016,26,TRUE
Altona,4/5 Rose St,2,u,425000,S,hockingstuart,2016-09,13.8,3018,1,2,115,57,1980,Hobsons Bay City Council,-37.871,144.8185,Western Metropolitan,10/9/2016,2016,36,FALSE
Altona,4/31 Millers Rd,2,u,391000,SP,Greg,2017-02,13.8,3018,1,1,0,65,1965,Hobsons Bay City Council,-37.8678,144.8384,Western Metropolitan,11/2/2017,2016,52,FALSE
Altona,24 Wren St,4,h,845000,S,hockingstuart,2017-02,13.8,3018,1,2,745,130,1950,Hobsons Bay City Council,-37.8658,144.8155,Western Metropolitan,11/2/2017,2016,67,FALSE
Altona,4/57 Blyth St,3,u,730000,SP,Barlow,2016-08,13.8,3018,2,1,69,141,2014,Hobsons Bay City Council,-37.868,144.8286,Western Metropolitan,13/8/2016,2016,2,TRUE
Altona,164 Maidstone St,3,h,635000,S,Sweeney,2016-05,13.8,3018,1,4,625,130,1960,Hobsons Bay City Council,-37.8611,144.8114,Western Metropolitan,14/5/2016,2016,56,FALSE
Altona,3/46 Sargood St,2,u,447000,S,Burnham,2016-10,13.8,3018,1,1,137,77,1990,Hobsons Bay City Council,-37.8655,144.8299,Western Metropolitan,15/10/2016,2016,26,TRUE
Altona,22 Fenfield St,3,h,678000,S,hockingstuart,2016-04,13.8,3018,1,2,606,87,1950,Hobsons Bay City Council,-37.8608,144.8124,Western Metropolitan,16/4/2016,2016,66,FALSE
Altona,5/8 David St,2,u,580000,PI,Biggin,2016-07,13.8,3018,2,1,175,76,2013,Hobsons Bay City Council,-37.8687,144.8268,Western Metropolitan,16/7/2016,2016,3,TRUE
Altona,27 McIntyre Dr,3,h,840000,SP,Greg,2017-03,13.8,3018,2,2,534,136,1965,Hobsons Bay City Council,-37.86,144.8245,Western Metropolitan,18/3/2017,2016,52,FALSE
Altona,3/20 Mulga St,3,u,577000,S,Williams,2016-04,13.8,3018,2,1,205,113,2007,Hobsons Bay City Council,-37.8684,144.815,Western Metropolitan,23/4/2016,2016,9,TRUE
Altona,104 Maidstone St,2,h,857000,SP,hockingstuart,2016-11,13.8,3018,2,1,675,100,1950,Hobsons Bay City Council,-37.8653,144.8129,Western Metropolitan,27/11/2016,2016,66,FALSE
Altona,5/57 Blyth St,3,u,730000,SP,Barlow,2016-05,13.8,3018,2,1,70,3,2014,Hobsons Bay City Council,-37.868,144.8285,Western Metropolitan,28/5/2016,2016,2,TRUE
Altona,3 Curtin Ct,4,h,931000,S,Sweeney,2016-08,13.8,3018,2,3,532,130,1970,Hobsons Bay City Council,-37.8637,144.8365,Western Metropolitan,28/8/2016,2016,46,FALSE
Altona,2/60 David St,2,h,535600,SP,Compton,2016-07,13.8,3018,1,1,154,91,1996,Hobsons Bay City Council,-37.8646,144.8272,Western Metropolitan,30/7/2016,2016,20,TRUE
Altona North,45 Hearn St,5,h,1085000,S,FN,2016-09,11.1,3025,3,6,592,251,1965,Hobsons Bay City Council,-37.8388,144.8567,Western Metropolitan,3/9/2016,2016,51,FALSE
Altona North,4 Knapp St,3,h,781000,S,Jas,2016-09,11.1,3025,1,2,533,117,1970,Hobsons Bay City Council,-37.8291,144.835,Western Metropolitan,3/9/2016,2016,46,FALSE
Altona North,3/66 Marion St,2,t,421000,S,hockingstuart,2017-03,11.1,3025,1,1,77,77,2009,Hobsons Bay City Council,-37.8351,144.8529,Western Metropolitan,4/3/2017,2016,8,TRUE
Altona North,33 Carthy St,3,h,683000,S,FN,2016-06,11.1,3025,1,2,534,167,1967,Hobsons Bay City Council,-37.8284,144.8355,Western Metropolitan,4/6/2016,2016,49,FALSE
Altona North,1/5 Little St,3,h,720000,VB,Greg,2016-08,11.1,3025,2,1,0,130,2012,Hobsons Bay City Council,-37.8379,144.8583,Western Metropolitan,6/8/2016,2016,4,TRUE
Altona North,1/95 Mills St,3,h,588000,S,Williams,2016-05,11.1,3025,1,1,328,118,1970,Hobsons Bay City Council,-37.838,144.8555,Western Metropolitan,7/5/2016,2016,46,FALSE
Altona North,5 Binns St,3,h,710000,PI,Village,2016-11,11.1,3025,1,3,540,116,1960,Hobsons Bay City Council,-37.8294,144.8378,Western Metropolitan,7/11/2016,2016,56,FALSE
Altona North,25 Allan St,4,h,875000,SP,Jas,2016-10,11.1,3025,1,4,559,169,1965,Hobsons Bay City Council,-37.8448,144.8529,Western Metropolitan,8/10/2016,2016,51,FALSE
Altona North,1/256 Mason St,2,t,640000,S,Williams,2017-03,11.1,3025,1,1,252,127,1965,Hobsons Bay City Council,-37.8397,144.8602,Western Metropolitan,11/3/2017,2016,52,FALSE
Altona North,2/36 May St,3,h,675000,S,hockingstuart,2016-05,11.1,3025,2,2,171,109,2012,Hobsons Bay City Council,-37.8337,144.8554,Western Metropolitan,14/5/2016,2016,4,TRUE
Altona North,11 Beevers St,3,h,708000,S,Greg,2016-10,11.1,3025,1,2,585,97,1960,Hobsons Bay City Council,-37.8258,144.8523,Western Metropolitan,15/10/2016,2016,56,FALSE
Altona North,252 Millers Rd,4,h,693000,SP,Raine&Horne,2016-05,11.1,3025,2,4,315,170,2008,Hobsons Bay City Council,-37.8391,144.8467,Western Metropolitan,22/5/2016,2016,8,TRUE
Altona North,1/156 Chambers Rd,3,h,620000,SP,Hunter,2016-08,11.1,3025,2,2,276,100,2010,Hobsons Bay City Council,-37.8262,144.8443,Western Metropolitan,22/8/2016,2016,6,TRUE
Altona North,2 Gadsden St,3,h,728500,S,Jas,2016-08,11.1,3025,1,1,531,157,1960,Hobsons Bay City Council,-37.8277,144.8385,Western Metropolitan,22/8/2016,2016,56,FALSE
Altona North,24 Hansen St,3,h,931000,S,hockingstuart,2016-08,11.1,3025,2,1,590,160,1950,Hobsons Bay City Council,-37.8382,144.8649,Western Metropolitan,22/8/2016,2016,66,FALSE
Altona North,4 Prismall St,3,h,988000,S,Sweeney,2016-08,11.1,3025,1,4,715,130.5,2008,Hobsons Bay City Council,-37.8423,144.8632,Western Metropolitan,22/8/2016,2016,8,TRUE
Altona North,6 Hill St,3,h,815000,S,hockingstuart,2017-02,11.1,3025,2,3,555,130,1960,Hobsons Bay City Council,-37.8318,144.8388,Western Metropolitan,25/2/2017,2016,57,FALSE
Altona North,5 Cresser St,4,h,1200000,SP,RT,2016-11,11.1,3025,1,4,633,158,1960,Hobsons Bay City Council,-37.8375,144.8541,Western Metropolitan,27/11/2016,2016,56,FALSE
Altona North,4/221 Blackshaws Rd,2,u,292000,S,Jas,2016-08,11.1,3025,1,1,153,70,1970,Hobsons Bay City Council,-37.8332,144.8649,Western Metropolitan,28/8/2016,2016,46,FALSE
Armadale,8/19 Mercer Rd,2,u,599000,S,Jellis,2016-09,6.3,3143,1,1,0,76,1964,Stonnington City Council,-37.8543,145.0262,Southern Metropolitan,3/9/2016,2016,52,FALSE
Armadale,14/71 Denbigh Rd,3,u,995000,S,Marshall,2016-12,6.3,3143,2,2,0,100,1998,Stonnington City Council,-37.8552,145.016,Southern Metropolitan,3/12/2016,2016,18,TRUE
Armadale,4/769 High St,3,t,1205000,S,Jellis,2016-12,6.3,3143,2,2,101,105,2000,Stonnington City Council,-37.854,145.0135,Southern Metropolitan,3/12/2016,2016,16,TRUE
Armadale,7 Llaneast St,3,h,1939000,S,Jellis,2016-12,6.3,3143,2,2,296,150,1889,Stonnington City Council,-37.8614,145.0274,Southern Metropolitan,3/12/2016,2016,127,FALSE
Armadale,28 Cambridge St,3,h,1870000,S,Hodges,2017-03,6.3,3143,1,1,217,116,1888,Stonnington City Council,-37.8592,145.0182,Southern Metropolitan,4/3/2017,2016,129,FALSE
Armadale,3/20 Mercer Rd,3,t,1918000,SP,Jellis,2017-03,6.3,3143,2,2,0,165,1995,Stonnington City Council,-37.8537,145.0267,Southern Metropolitan,4/3/2017,2016,22,TRUE
Armadale,12 Willis St,3,h,2050000,S,Marshall,2017-03,6.3,3143,2,1,205,116,1910,Stonnington City Council,-37.8574,145.0281,Southern Metropolitan,4/3/2017,2016,107,FALSE
Armadale,11/17 Myamyn St,2,u,3625000,S,Jellis,2016-06,6.3,3143,2,2,0,74,2006,Stonnington City Council,-37.8555,145.0291,Southern Metropolitan,4/6/2016,2016,10,TRUE
Armadale,526 Orrong Rd,4,h,3000000,VB,Jellis,2016-06,6.3,3143,2,2,1581,128,1934,Stonnington City Council,-37.858,145.0111,Southern Metropolitan,4/6/2016,2016,82,FALSE
Armadale,9/19 Mercer Rd,3,u,735000,PI,Marshall,2016-05,6.3,3143,2,1,2113,14,1970,Stonnington City Council,-37.8543,145.0262,Southern Metropolitan,7/5/2016,2016,46,FALSE
Armadale,18/41 Kooyong Rd,2,u,645000,S,Marshall,2016-10,6.3,3143,1,1,0,74,1960,Stonnington City Council,-37.8596,145.0198,Southern Metropolitan,8/10/2016,2016,56,FALSE
Armadale,10 William St,1,h,1435000,SP,Jellis,2016-10,6.3,3143,2,1,144,107,1900,Stonnington City Council,-37.8564,145.0228,Southern Metropolitan,8/10/2016,2016,116,FALSE
Armadale,15/405 Dandenong Rd,1,u,280000,PI,hockingstuart,2016-09,6.3,3143,1,1,0,38,1975,Stonnington City Council,-37.8619,145.0185,Southern Metropolitan,10/9/2016,2016,41,FALSE
Armadale,8/58 Sutherland Rd,2,u,592500,S,hockingstuart,2016-12,6.3,3143,1,1,0,73,1970,Stonnington City Council,-37.8574,145.0174,Southern Metropolitan,10/12/2016,2016,46,FALSE
Armadale,40 New St,2,h,1210000,S,Marshall,2016-11,6.3,3143,1,0,249,96,1910,Stonnington City Council,-37.8543,145.016,Southern Metropolitan,12/11/2016,2016,106,FALSE
Armadale,35 Northcote Rd,4,h,2801000,S,Marshall,2016-11,6.3,3143,2,2,624,222,1900,Stonnington City Council,-37.8536,145.0173,Southern Metropolitan,12/11/2016,2016,116,FALSE
Armadale,791 High St,3,h,1800000,PI,RT,2016-10,6.3,3143,2,2,405,121,1910,Stonnington City Council,-37.8545,145.0145,Southern Metropolitan,15/10/2016,2016,106,FALSE
Armadale,25 Llaneast St,4,h,2200000,PI,Jellis,2016-10,6.3,3143,1,2,495,163,1900,Stonnington City Council,-37.8613,145.0264,Southern Metropolitan,15/10/2016,2016,116,FALSE
Armadale,367 Dandenong Rd,6,h,5525000,S,Marshall,2016-09,6.3,3143,3,4,1491,516,1935,Stonnington City Council,-37.8602,145.013,Southern Metropolitan,17/9/2016,2016,81,FALSE
Armadale,10/581 Orrong Rd,1,u,440000,SP,Jellis,2017-03,6.3,3143,1,1,0,53,1970,Stonnington City Council,-37.8531,145.0115,Southern Metropolitan,18/3/2017,2016,47,FALSE
Armadale,7/579 Dandenong Rd,2,u,490000,PI,Ray,2016-06,6.3,3143,1,1,0,74,1966,Stonnington City Council,-37.8646,145.0247,Southern Metropolitan,18/6/2016,2016,50,FALSE
Armadale,14 New St,3,h,1300000,VB,Jellis,2016-06,6.3,3143,1,2,212,106,1900,Stonnington City Council,-37.8542,145.0149,Southern Metropolitan,18/6/2016,2016,116,FALSE
Armadale,6/51 Armadale St,2,u,704000,SP,Greg,2016-11,6.3,3143,1,1,0,74,1969,Stonnington City Council,-37.8573,145.0186,Southern Metropolitan,19/11/2016,2016,47,FALSE
Armadale,12/41 Kooyong Rd,2,u,620000,VB,Marshall,2016-11,6.3,3143,1,1,0,98,1970,Stonnington City Council,-37.8596,145.0198,Southern Metropolitan,19/11/2016,2016,46,FALSE
Armadale,63 Denbigh Rd,3,h,1900000,S,Marshall,2016-05,6.3,3143,1,2,328,108,1900,Stonnington City Council,-37.8559,145.0158,Southern Metropolitan,22/5/2016,2016,116,FALSE
Armadale,10/51 Armadale St,2,u,710000,S,Jellis,2017-02,6.3,3143,1,1,2471,80,1970,Stonnington City Council,-37.8573,145.0186,Southern Metropolitan,25/2/2017,2016,47,FALSE
Armadale,2/377 Dandenong Rd,2,u,872000,S,Jellis,2017-02,6.3,3143,1,1,1194,74,1953,Stonnington City Council,-37.8604,145.0147,Southern Metropolitan,25/2/2017,2016,64,FALSE
Armadale,1/14 Denbigh Rd,2,u,598000,S,hockingstuart,2017-02,6.3,3143,1,1,0,88,1970,Stonnington City Council,-37.8593,145.0156,Southern Metropolitan,25/2/2017,2016,47,FALSE
Armadale,75 Sutherland Rd,3,h,1285000,S,Marshall,2017-02,6.3,3143,1,2,186,80,1920,Stonnington City Council,-37.8554,145.0173,Southern Metropolitan,25/2/2017,2016,97,FALSE
Armadale,1/403 Dandenong Rd,2,u,520000,S,hockingstuart,2016-06,6.3,3143,1,1,0,76,1970,Stonnington City Council,-37.8618,145.0183,Southern Metropolitan,27/6/2016,2016,46,FALSE
Armadale,44 Denbigh Rd,4,h,3625000,S,Jellis,2016-11,6.3,3143,1,2,709,251,1900,Stonnington City Council,-37.8574,145.016,Southern Metropolitan,27/11/2016,2016,116,FALSE
Armadale,44 Hampden Rd,4,h,4200000,VB,Kay,2016-11,6.3,3143,3,3,563,333,2000,Stonnington City Council,-37.8582,145.0138,Southern Metropolitan,27/11/2016,2016,16,TRUE
Armadale,3/769 High St,3,t,1101000,S,Jellis,2016-11,6.3,3143,1,2,103,3,2000,Stonnington City Council,-37.8542,145.0135,Southern Metropolitan,27/11/2016,2016,16,TRUE
Armadale,4 Mercer Rd,3,h,3512500,S,Marshall,2016-11,6.3,3143,2,2,617,285,1998,Stonnington City Council,-37.8557,145.0264,Southern Metropolitan,27/11/2016,2016,18,TRUE
Armadale,1/31 Mercer Rd,3,u,869000,S,Jellis,2016-05,6.3,3143,1,1,0,91,1940,Stonnington City Council,-37.853,145.0264,Southern Metropolitan,28/5/2016,2016,76,FALSE
Armadale,5/555 Orrong Rd,1,u,567000,S,hockingstuart,2016-08,6.3,3143,1,1,0,53,2013,Stonnington City Council,-37.8549,145.0113,Southern Metropolitan,28/8/2016,2016,3,TRUE
Armadale,7/844 Malvern Rd,2,u,471500,S,Ray,2016-07,6.3,3143,1,1,0,74,1980,Stonnington City Council,-37.8503,145.0185,Southern Metropolitan,30/7/2016,2016,36,FALSE
Ascot Vale,30 Rothwell St,3,h,940000,S,Nelson,2016-12,5.9,3032,1,2,298,108,1920,Moonee Valley City Council,-37.7777,144.9195,Western Metropolitan,3/12/2016,2016,96,FALSE
Ascot Vale,9/5 Rothwell St,2,u,467000,SP,Brad,2016-12,5.9,3032,1,1,0,62,1980,Moonee Valley City Council,-37.7761,144.9201,Western Metropolitan,3/12/2016,2016,36,FALSE
Ascot Vale,7 Francis St,3,h,1380000,SP,Nelson,2017-03,5.9,3032,2,2,277,174,1910,Moonee Valley City Council,-37.7777,144.9221,Western Metropolitan,4/3/2017,2016,107,FALSE
Ascot Vale,2/21 Harold St,2,u,490000,VB,Jellis,2017-03,5.9,3032,1,1,423,62,1970,Moonee Valley City Council,-37.7736,144.9015,Western Metropolitan,4/3/2017,2016,47,FALSE
Ascot Vale,44 The Parade,4,h,1850000,S,Brad,2017-03,5.9,3032,3,1,478,270,1900,Moonee Valley City Council,-37.7729,144.9179,Western Metropolitan,4/3/2017,2016,117,FALSE
Ascot Vale,97 Walter St,3,h,1284000,S,Woodards,2017-03,5.9,3032,1,2,623,147.5,1938,Moonee Valley City Council,-37.7758,144.9089,Western Metropolitan,4/3/2017,2017,79,FALSE
Ascot Vale,98 Epsom Rd,3,h,971000,SP,Nelson,2016-06,5.9,3032,2,2,285,128,1900,Moonee Valley City Council,-37.775,144.9091,Western Metropolitan,4/6/2016,2016,116,FALSE
Ascot Vale,8 Geddes St,2,h,710000,PI,Nelson,2016-06,5.9,3032,1,1,214,77,1890,Moonee Valley City Council,-37.7776,144.9142,Western Metropolitan,4/6/2016,2016,126,FALSE
Ascot Vale,75 Maribyrnong Rd,6,h,2425000,PI,Brad,2016-06,5.9,3032,3,2,1014,435,1887,Moonee Valley City Council,-37.7721,144.9184,Western Metropolitan,4/6/2016,2016,129,FALSE
Ascot Vale,119 Roseberry St,2,h,750000,SP,Maddison,2016-06,5.9,3032,1,1,226,92,1920,Moonee Valley City Council,-37.7745,144.9093,Western Metropolitan,4/6/2016,2016,96,FALSE
Ascot Vale,10 Fenton St,2,h,1053000,S,Nelson,2016-08,5.9,3032,1,1,269,109,1900,Moonee Valley City Council,-37.7748,144.929,Western Metropolitan,6/8/2016,2016,116,FALSE
Ascot Vale,10 McCully St,3,h,1377000,S,Nelson,2016-08,5.9,3032,1,1,417,168,1900,Moonee Valley City Council,-37.7756,144.9208,Western Metropolitan,6/8/2016,2016,116,FALSE
Ascot Vale,120 Epsom Rd,3,h,970000,S,Brad,2016-05,5.9,3032,1,2,350,125,1904,Moonee Valley City Council,-37.7759,144.91,Western Metropolitan,7/5/2016,2016,112,FALSE
Ascot Vale,63 Kent St,2,h,751000,PI,Nelson,2016-05,5.9,3032,1,1,118,79,1890,Moonee Valley City Council,-37.7807,144.9288,Western Metropolitan,7/5/2016,2016,126,FALSE
Ascot Vale,4 The Parade,2,h,950000,SP,Raine,2016-05,5.9,3032,1,1,173,102,1900,Moonee Valley City Council,-37.7731,144.9206,Western Metropolitan,7/5/2016,2016,116,FALSE
Ascot Vale,1/17 Epsom Rd,2,u,685000,S,Brad,2016-11,5.9,3032,1,2,228,90,1995,Moonee Valley City Council,-37.7718,144.9066,Western Metropolitan,7/11/2016,2016,21,TRUE
Ascot Vale,41 Monash St,3,h,1230000,S,Nelson,2016-10,5.9,3032,1,2,594,148,1960,Moonee Valley City Council,-37.7819,144.9064,Western Metropolitan,8/10/2016,2016,56,FALSE
Ascot Vale,51 Francis St,2,h,770000,PI,Nelson,2016-09,5.9,3032,1,1,226,87,1900,Moonee Valley City Council,-37.7774,144.9186,Western Metropolitan,10/9/2016,2016,116,FALSE
Ascot Vale,33 Dalgety Dr,3,h,960000,S,Walshe,2016-12,5.9,3032,2,2,229,147.5,2011,Moonee Valley City Council,-37.7778,144.9065,Western Metropolitan,10/12/2016,2016,5,TRUE
Ascot Vale,12 Mirams St,4,h,890000,SP,Raine,2016-12,5.9,3032,1,1,300,185,1890,Moonee Valley City Council,-37.7766,144.9143,Western Metropolitan,10/12/2016,2016,126,FALSE
Ascot Vale,78 The Parade,3,h,1440000,S,Nelson,2017-02,5.9,3032,1,1,487,131,1900,Moonee Valley City Council,-37.7725,144.9146,Western Metropolitan,11/2/2017,2017,117,FALSE
Ascot Vale,24/54 Epsom Rd,2,u,450000,VB,Nelson,2016-11,5.9,3032,1,1,0,69,2010,Moonee Valley City Council,-37.7731,144.9074,Western Metropolitan,12/11/2016,2016,6,TRUE
Ascot Vale,2 Farncomb St,3,h,801000,S,Jellis,2016-11,5.9,3032,1,2,431,147.5,1950,Moonee Valley City Council,-37.781,144.9207,Western Metropolitan,12/11/2016,2016,66,FALSE
Ascot Vale,26 Newsom St,3,h,1000000,PI,Brad,2016-11,5.9,3032,2,2,440,120,1955,Moonee Valley City Council,-37.7746,144.9031,Western Metropolitan,12/11/2016,2016,61,FALSE
Ascot Vale,8 Pentland St,3,h,1435000,S,Nelson,2016-11,5.9,3032,2,2,532,147,1950,Moonee Valley City Council,-37.7737,144.904,Western Metropolitan,12/11/2016,2016,66,FALSE
Ascot Vale,8/129 The Parade,1,u,390000,S,Alexkarbon,2016-11,5.9,3032,1,1,0,58,1972,Moonee Valley City Council,-37.7723,144.9094,Western Metropolitan,12/11/2016,2016,44,FALSE
Ascot Vale,52 Monash St,3,h,1425000,PI,Jellis,2016-08,5.9,3032,2,2,495,139,1920,Moonee Valley City Council,-37.7821,144.9055,Western Metropolitan,13/8/2016,2016,96,FALSE
Ascot Vale,58 Fenton St,4,h,1340000,S,Nelson,2016-05,5.9,3032,2,2,683,232,1978,Moonee Valley City Council,-37.775,144.932,Western Metropolitan,14/5/2016,2016,38,FALSE
Ascot Vale,70 Munro St,3,h,955000,S,Brad,2016-05,5.9,3032,1,1,263,117,1910,Moonee Valley City Council,-37.7753,144.9116,Western Metropolitan,14/5/2016,2016,106,FALSE
Ascot Vale,125 Epsom Rd,4,h,1100000,VB,Nelson,2016-10,5.9,3032,2,5,559,195,1920,Moonee Valley City Council,-37.7791,144.9136,Western Metropolitan,15/10/2016,2016,96,FALSE
Ascot Vale,3/28 Ormond Rd,2,u,432000,S,Biggin,2016-10,5.9,3032,1,1,0,62,1978,Moonee Valley City Council,-37.773,144.9303,Western Metropolitan,15/10/2016,2016,38,FALSE
Ascot Vale,7 Angler Pde,4,h,1640000,S,Raine,2016-04,5.9,3032,3,2,562,204,1890,Moonee Valley City Council,-37.782,144.903,Western Metropolitan,16/4/2016,2016,126,FALSE
Ascot Vale,26 Ayr St,6,h,1430000,S,Nelson,2016-04,5.9,3032,2,1,461,286,1900,Moonee Valley City Council,-37.78,144.9295,Western Metropolitan,16/4/2016,2016,116,FALSE
Ascot Vale,2/127 Epsom Rd,2,u,610000,SP,Brad,2016-04,5.9,3032,1,1,301,104,1995,Moonee Valley City Council,-37.7791,144.914,Western Metropolitan,16/4/2016,2016,21,TRUE
Ascot Vale,57 The Parade,3,h,940000,S,Nelson,2016-04,5.9,3032,3,1,491,127,1950,Moonee Valley City Council,-37.7727,144.9136,Western Metropolitan,16/4/2016,2016,66,FALSE
Ascot Vale,62 Mirams St,3,h,890000,SP,Brad,2016-07,5.9,3032,1,1,242,110,1920,Moonee Valley City Council,-37.7765,144.9114,Western Metropolitan,16/7/2016,2016,96,FALSE
Ascot Vale,67 Hurtle St,3,h,1180000,SP,Brad,2016-09,5.9,3032,2,2,617,149,1930,Moonee Valley City Council,-37.7742,144.906,Western Metropolitan,17/9/2016,2016,86,FALSE
Ascot Vale,95 Walter St,4,h,1480000,S,Raine,2016-09,5.9,3032,2,2,597,180,1939,Moonee Valley City Council,-37.7757,144.9088,Western Metropolitan,17/9/2016,2016,77,FALSE
Ascot Vale,3/8 Walter St,2,t,865000,SP,Nelson,2017-03,5.9,3032,2,1,146,132,2015,Moonee Valley City Council,-37.7713,144.9038,Western Metropolitan,18/3/2017,2017,2,TRUE
Ascot Vale,2/225 Maribyrnong Rd,2,t,705000,S,Brad,2016-06,5.9,3032,2,1,113,132,1998,Moonee Valley City Council,-37.7712,144.9088,Western Metropolitan,18/6/2016,2016,18,TRUE
Ascot Vale,12/9 Milton St,2,u,442000,S,Alexkarbon,2016-06,5.9,3032,1,1,0,62,1975,Moonee Valley City Council,-37.7733,144.9219,Western Metropolitan,18/6/2016,2016,41,FALSE
Ascot Vale,21A Geddes St,3,h,1037500,S,Alexkarbon,2016-11,5.9,3032,1,2,506,110,1920,Moonee Valley City Council,-37.7779,144.9133,Western Metropolitan,19/11/2016,2016,96,FALSE
Ascot Vale,1/20 Newsom St,3,t,1050000,S,Jellis,2016-11,5.9,3032,2,2,318,160,2013,Moonee Valley City Council,-37.7744,144.9035,Western Metropolitan,19/11/2016,2016,3,TRUE
Ascot Vale,4/27 Roseberry St,2,u,440000,S,McDonald,2016-11,5.9,3032,1,1,0,65,1970,Moonee Valley City Council,-37.7749,144.9137,Western Metropolitan,19/11/2016,2016,46,FALSE
Ascot Vale,43 Bloomfield Rd,4,h,1430000,S,Nelson,2016-05,5.9,3032,2,0,418,158,1900,Moonee Valley City Council,-37.7766,144.9187,Western Metropolitan,22/5/2016,2016,116,FALSE
Ascot Vale,21 Middle St,3,h,1130000,S,Nelson,2016-04,5.9,3032,2,1,272,157,1900,Moonee Valley City Council,-37.7774,144.928,Western Metropolitan,23/4/2016,2016,116,FALSE
Ascot Vale,78 Francis St,3,h,1135000,S,Brad,2016-09,5.9,3032,1,1,296,104,1910,Moonee Valley City Council,-37.777,144.9176,Western Metropolitan,24/9/2016,2016,106,FALSE
Ascot Vale,25 Geddes St,4,h,950000,PI,Nelson,2016-09,5.9,3032,2,1,298,147,1920,Moonee Valley City Council,-37.7778,144.9131,Western Metropolitan,24/9/2016,2016,96,FALSE
Ascot Vale,18/54 Epsom Rd,2,u,390000,PI,Jellis,2017-02,5.9,3032,1,1,1957,69,2012,Moonee Valley City Council,-37.7731,144.9074,Western Metropolitan,25/2/2017,2017,5,TRUE
Ascot Vale,15 Mirams St,4,h,1345000,S,Jellis,2017-02,5.9,3032,1,1,552,155,1920,Moonee Valley City Council,-37.7769,144.9138,Western Metropolitan,25/2/2017,2017,97,FALSE
Ascot Vale,44 Walter St,3,h,1381500,S,Barry,2017-02,5.9,3032,2,2,416,168,1900,Moonee Valley City Council,-37.7727,144.9055,Western Metropolitan,25/2/2017,2017,117,FALSE
Ascot Vale,25 Dalgety Dr,3,h,940000,S,Jellis,2016-07,5.9,3032,2,2,285,172,2011,Moonee Valley City Council,-37.7778,144.9061,Western Metropolitan,26/7/2016,2016,5,TRUE
Ascot Vale,7 Dalgety Dr,3,h,995000,S,Nelson,2016-07,5.9,3032,2,1,314,177,2010,Moonee Valley City Council,-37.7778,144.9042,Western Metropolitan,26/7/2016,2016,6,TRUE
Ascot Vale,6 Waller Ct,3,h,786000,S,Brad,2016-07,5.9,3032,2,1,576,120,1940,Moonee Valley City Council,-37.7816,144.9217,Western Metropolitan,26/7/2016,2016,76,FALSE
Ascot Vale,17 Ascot St,2,h,705000,PI,Nelson,2016-06,5.9,3032,1,3,252,108,1910,Moonee Valley City Council,-37.7825,144.9206,Western Metropolitan,27/6/2016,2016,106,FALSE
Ascot Vale,73 Kent St,2,h,760000,PI,Nelson,2016-06,5.9,3032,1,1,124,77,1900,Moonee Valley City Council,-37.7807,144.9285,Western Metropolitan,27/6/2016,2016,116,FALSE
Ascot Vale,9/129 The Parade,3,u,487500,S,Hodges,2016-06,5.9,3032,1,3,0,69,1972,Moonee Valley City Council,-37.7723,144.9094,Western Metropolitan,27/6/2016,2016,44,FALSE
Ascot Vale,1 East St,3,t,1000000,S,Nelson,2016-11,5.9,3032,2,2,200,144,2003,Moonee Valley City Council,-37.7766,144.9277,Western Metropolitan,27/11/2016,2016,13,TRUE
Ascot Vale,32 Geddes St,4,h,1110000,PI,Nelson,2016-11,5.9,3032,2,1,349,147.5,1920,Moonee Valley City Council,-37.7775,144.913,Western Metropolitan,27/11/2016,2016,96,FALSE
Ascot Vale,1 Bloomfield Rd,3,h,1305000,S,Barry,2016-05,5.9,3032,1,1,278,166,1900,Moonee Valley City Council,-37.7768,144.9223,Western Metropolitan,28/5/2016,2016,116,FALSE
Ascot Vale,58 Bloomfield Rd,3,h,1215000,S,Stockdale,2016-08,5.9,3032,1,1,452,175,1960,Moonee Valley City Council,-37.7762,144.9174,Western Metropolitan,28/8/2016,2016,56,FALSE
Ascot Vale,1/91 Epsom Rd,2,u,545000,S,Nelson,2016-08,5.9,3032,1,2,194,71,1900,Moonee Valley City Council,-37.7772,144.9118,Western Metropolitan,28/8/2016,2016,116,FALSE
Ascot Vale,5 Doncaster St,4,h,1705000,S,Jellis,2016-07,5.9,3032,2,4,598,273,2012,Moonee Valley City Council,-37.7774,144.9104,Western Metropolitan,30/7/2016,2016,4,TRUE
Ashburton,61 Dent St,4,h,2650000,S,Marshall,2016-09,11,3147,3,2,753,399,2015,Boroondara City Council,-37.8669,145.0767,Southern Metropolitan,3/9/2016,2016,1,TRUE
Ashburton,69 Albion Rd,3,h,1670000,S,Jellis,2016-12,11,3147,2,2,599,220,1930,Boroondara City Council,-37.8673,145.0688,Southern Metropolitan,3/12/2016,2016,86,FALSE
Ashburton,3/39 Solway St,3,t,2050000,S,Fletchers,2016-12,11,3147,3,4,310,315,2014,Boroondara City Council,-37.874,145.0714,Southern Metropolitan,3/12/2016,2016,2,TRUE
Ashburton,101/218 High St,2,u,500000,VB,Fletchers,2017-03,11,3147,1,1,710,77,2010,Boroondara City Council,-37.8636,145.0794,Southern Metropolitan,4/3/2017,2017,7,TRUE
Ashburton,3 Dunlop St,3,h,1555000,S,Jellis,2016-06,11,3147,2,2,731,149,1935,Boroondara City Council,-37.8666,145.0676,Southern Metropolitan,4/6/2016,2016,81,FALSE
Ashburton,16a Nicholas St,3,h,1100000,PI,Marshall,2016-10,11,3147,3,2,276,178,2004,Boroondara City Council,-37.8699,145.0778,Southern Metropolitan,8/10/2016,2016,12,TRUE
Ashburton,5 Nicholas St,3,h,1337000,S,Buxton,2016-10,11,3147,1,2,583,112,1950,Boroondara City Council,-37.8685,145.0786,Southern Metropolitan,8/10/2016,2016,66,FALSE
Ashburton,115 Ashburn Gr,8,h,2950000,S,hockingstuart,2016-09,11,3147,7,4,1472,618,2009,Boroondara City Council,-37.8729,145.0788,Southern Metropolitan,10/9/2016,2016,7,TRUE
Ashburton,33 Eleanor St,4,h,2215000,SP,Marshall,2016-09,11,3147,2,1,681,180,1940,Boroondara City Council,-37.8612,145.0858,Southern Metropolitan,10/9/2016,2016,76,FALSE
Ashburton,1/1 Nairn St,3,h,1518000,S,Jellis,2016-09,11,3147,2,2,516,145,1920,Boroondara City Council,-37.8675,145.0668,Southern Metropolitan,10/9/2016,2016,96,FALSE
Ashburton,9 Gona Ct,3,h,1710000,S,hockingstuart,2016-12,11,3147,1,2,806,101,1950,Boroondara City Council,-37.8695,145.084,Southern Metropolitan,10/12/2016,2016,66,FALSE
Ashburton,45 Yuile St,3,h,1655000,S,Jellis,2016-12,11,3147,1,3,780,152,1940,Boroondara City Council,-37.8599,145.0815,Southern Metropolitan,10/12/2016,2016,76,FALSE
Ashburton,47 Yuile St,4,h,1550000,VB,Marshall,2016-11,11,3147,2,2,780,180,1938,Boroondara City Council,-37.86,145.0817,Southern Metropolitan,12/11/2016,2016,78,FALSE
Ashburton,6a Glen Rd,3,h,1662000,S,Jellis,2016-05,11,3147,2,2,351,228,2006,Boroondara City Council,-37.8742,145.07,Southern Metropolitan,14/5/2016,2016,10,TRUE
Ashburton,18 Glen Rd,3,h,1665000,S,Jellis,2016-10,11,3147,2,3,702,145,1945,Boroondara City Council,-37.8737,145.0695,Southern Metropolitan,15/10/2016,2016,71,FALSE
Ashburton,29A Yuile St,5,h,3510000,S,Jellis,2017-03,11,3147,5,2,755,444,2015,Boroondara City Council,-37.8598,145.0796,Southern Metropolitan,18/3/2017,2017,2,TRUE
Ashburton,2/17 Ashburn Gr,3,t,900000,S,Jellis,2016-11,11,3147,2,2,153,110,1990,Boroondara City Council,-37.8655,145.0808,Southern Metropolitan,19/11/2016,2016,26,TRUE
Ashburton,15 Comas Gr,5,h,2752000,S,Jellis,2016-08,11,3147,4,2,1075,390,2010,Boroondara City Council,-37.8714,145.073,Southern Metropolitan,22/8/2016,2016,6,TRUE
Ashburton,3 Mustang Ct,3,h,1500000,VB,Jellis,2016-08,11,3147,2,2,710,139,1945,Boroondara City Council,-37.8653,145.0897,Southern Metropolitan,22/8/2016,2016,71,FALSE
Ashburton,63 Dent St,4,h,1800000,S,Jellis,2017-02,11,3147,2,4,749,206,1950,Boroondara City Council,-37.8669,145.077,Southern Metropolitan,25/2/2017,2017,67,FALSE
Ashburton,4 Vears Rd,3,h,1830000,S,Jellis,2017-02,11,3147,2,3,724,168,1940,Boroondara City Council,-37.8619,145.0879,Southern Metropolitan,25/2/2017,2017,77,FALSE
Ashburton,14 Lucerne St,3,h,1415000,S,Buxton,2016-06,11,3147,1,1,605,111,1950,Boroondara City Council,-37.8703,145.0774,Southern Metropolitan,27/6/2016,2016,66,FALSE
Ashburton,5 Pitt St,2,h,1440000,PI,Jellis,2016-06,11,3147,1,1,687,104,1940,Boroondara City Council,-37.872,145.0692,Southern Metropolitan,27/6/2016,2016,76,FALSE
Ashburton,1/65 Ashburn Gr,4,t,1250000,VB,Noel,2016-11,11,3147,2,2,321,199,2007,Boroondara City Council,-37.8693,145.08,Southern Metropolitan,27/11/2016,2016,9,TRUE
Ashburton,48 Nicholas St,5,h,1600000,S,Marshall,2016-11,11,3147,3,4,700,266,1950,Boroondara City Council,-37.8724,145.0758,Southern Metropolitan,27/11/2016,2016,66,FALSE
Ashburton,5 Taylor St,4,h,1860000,S,Jellis,2016-11,11,3147,2,3,696,274,2000,Boroondara City Council,-37.8711,145.0746,Southern Metropolitan,27/11/2016,2016,16,TRUE
Ashburton,1/7 Y St,3,t,1710000,S,Marshall,2016-11,11,3147,2,2,295,199,1990,Boroondara City Council,-37.8624,145.0798,Southern Metropolitan,27/11/2016,2016,26,TRUE
Ashburton,33 Highgate Gr,4,h,1790000,PI,hockingstuart,2016-05,11,3147,2,2,514,240,1935,Boroondara City Council,-37.8664,145.0772,Southern Metropolitan,28/5/2016,2016,81,FALSE
Ashburton,9 Pitt St,4,h,1950000,S,Tim,2016-05,11,3147,2,2,844,278,1940,Boroondara City Council,-37.8715,145.0688,Southern Metropolitan,28/5/2016,2016,76,FALSE
Ashburton,19 Poulter St,3,h,1650000,S,Marshall,2016-08,11,3147,1,1,697,164,1947,Boroondara City Council,-37.8636,145.0903,Southern Metropolitan,28/8/2016,2016,69,FALSE
Ashwood,18 Teck St,2,h,995000,S,Tim,2016-09,12.2,3147,1,1,583,154,1950,Monash City Council,-37.8693,145.1082,Southern Metropolitan,3/9/2016,2016,66,FALSE
Ashwood,1/53 Winbirra Pde,4,h,1200000,SP,Purplebricks,2017-03,12.2,3147,3,2,372,201,2016,Monash City Council,-37.8716,145.0999,Southern Metropolitan,4/3/2017,2017,1,TRUE
Ashwood,18 Montrose St,2,h,1075000,VB,Jellis,2016-06,12.2,3147,1,2,695,114,1950,Monash City Council,-37.8694,145.0944,Southern Metropolitan,4/6/2016,2016,66,FALSE
Ashwood,4 Scenic Dr,4,h,1500000,S,Fletchers,2016-08,12.2,3147,2,2,621,203,2000,Monash City Council,-37.8647,145.1023,Southern Metropolitan,6/8/2016,2016,16,TRUE
Ashwood,1/7 Farmer St,2,t,700000,S,hockingstuart,2016-11,12.2,3147,1,2,367,110,1970,Monash City Council,-37.8662,145.109,Southern Metropolitan,7/11/2016,2016,46,FALSE
Ashwood,1/136 High Street Rd,3,h,761000,PI,Fletchers,2016-11,12.2,3147,2,4,400,94,1950,Monash City Council,-37.8675,145.106,Southern Metropolitan,7/11/2016,2016,66,FALSE
Ashwood,35 Douglas St,3,h,1365000,S,Fletchers,2016-09,12.2,3147,1,1,792,792,1950,Monash City Council,-37.864,145.0972,Southern Metropolitan,10/9/2016,2016,66,FALSE
Ashwood,95 Huntingdale Rd,4,h,1100000,VB,Tim,2016-12,12.2,3147,2,2,803,152,1970,Monash City Council,-37.8621,145.1126,Southern Metropolitan,10/12/2016,2016,46,FALSE
Ashwood,1/7 Murra Ct,2,u,690000,S,Ray,2016-05,12.2,3147,1,1,216,90,2003,Monash City Council,-37.8711,145.1017,Southern Metropolitan,14/5/2016,2016,13,TRUE
Ashwood,58 Ashwood Dr,3,h,1631000,S,Jellis,2016-10,12.2,3147,2,3,782,215,1950,Monash City Council,-37.8621,145.1021,Southern Metropolitan,15/10/2016,2016,66,FALSE
Ashwood,3 Harold St,4,h,1500000,S,Buxton,2016-10,12.2,3147,2,1,593,255,1930,Monash City Council,-37.8655,145.096,Southern Metropolitan,15/10/2016,2016,86,FALSE
Ashwood,16 Scenic Dr,5,h,1529500,S,Buxton,2016-09,12.2,3147,3,2,585,317,2000,Monash City Council,-37.8637,145.1024,Southern Metropolitan,17/9/2016,2016,16,TRUE
Ashwood,4/36 Queens Pde,2,u,600000,S,Noel,2017-03,12.2,3147,1,1,153,80,1970,Monash City Council,-37.8696,145.0962,Southern Metropolitan,18/3/2017,2017,47,FALSE
Ashwood,147 Huntingdale Rd,3,h,785000,S,Buxton,2016-11,12.2,3147,1,1,557,154,1960,Monash City Council,-37.8671,145.1117,Southern Metropolitan,19/11/2016,2016,56,FALSE
Ashwood,17 Parkhill Dr,4,h,1240000,S,Tim,2016-11,12.2,3147,2,2,766,192,1950,Monash City Council,-37.8629,145.1097,Southern Metropolitan,19/11/2016,2016,66,FALSE
Ashwood,2/6 Murra Ct,2,u,700000,S,hockingstuart,2016-08,12.2,3147,1,2,192,88,2007,Monash City Council,-37.8709,145.102,Southern Metropolitan,22/8/2016,2016,9,TRUE
Ashwood,4 Teck St,2,h,1110000,S,Fletchers,2016-09,12.2,3147,1,1,586,86,1950,Monash City Council,-37.8683,145.1082,Southern Metropolitan,24/9/2016,2016,66,FALSE
Ashwood,14 Ashwood Dr,3,h,1305000,S,Jellis,2017-02,12.2,3147,1,1,760,120,1960,Monash City Council,-37.858,145.1038,Southern Metropolitan,25/2/2017,2017,57,FALSE
Ashwood,1/2 Condah Ct,3,h,855000,S,Noel,2017-02,12.2,3147,2,1,320,85,1958,Monash City Council,-37.87,145.1103,Southern Metropolitan,25/2/2017,2017,59,FALSE
Ashwood,1/16 Raymond St,3,t,900500,S,Jellis,2016-11,12.2,3147,2,2,256,134,2012,Monash City Council,-37.8655,145.1096,Southern Metropolitan,27/11/2016,2016,4,TRUE
Ashwood,4 Newbury Ct,3,h,1200000,VB,Buxton,2016-05,12.2,3147,2,2,839,198,1970,Monash City Council,-37.8614,145.1098,Southern Metropolitan,28/5/2016,2016,46,FALSE
Ashwood,2/53 Salisbury Rd,3,t,830000,S,Barry,2016-08,12.2,3147,1,2,212,130,2012,Monash City Council,-37.8723,145.1089,Southern Metropolitan,28/8/2016,2016,4,TRUE
Avondale Heights,8 Norma Ct,3,h,850000,S,Moonee,2016-09,10.5,3034,1,1,593,118,1970,Moonee Valley City Council,-37.7677,144.8674,Western Metropolitan,3/9/2016,2016,46,FALSE
Avondale Heights,9 Rogerson St,3,h,750000,SP,Moonee,2016-09,10.5,3034,1,1,0,103,1980,Moonee Valley City Council,-37.7634,144.8611,Western Metropolitan,3/9/2016,2016,36,FALSE
Avondale Heights,157 Canning St,3,t,851000,S,Nelson,2016-12,10.5,3034,3,1,557,181,2017,Moonee Valley City Council,-37.77,144.8572,Western Metropolitan,3/12/2016,2016,-1,TRUE
Avondale Heights,36 Wood St,4,h,806000,S,Moonee,2017-03,10.5,3034,2,1,350,132,2008,Moonee Valley City Council,-37.7676,144.859,Western Metropolitan,4/3/2017,2017,9,TRUE
Avondale Heights,2 Arbor Tce,4,h,1155000,S,Nelson,2016-06,10.5,3034,2,2,569,225,2008,Moonee Valley City Council,-37.7654,144.8655,Western Metropolitan,4/6/2016,2016,8,TRUE
Avondale Heights,68 Thompson St,3,h,680000,S,Nelson,2016-08,10.5,3034,1,2,570,120,1970,Moonee Valley City Council,-37.7591,144.8542,Western Metropolitan,6/8/2016,2016,46,FALSE
Avondale Heights,97 Military Rd,3,h,627500,SP,Moonee,2016-10,10.5,3034,1,1,550,143,1970,Moonee Valley City Council,-37.7632,144.8622,Western Metropolitan,8/10/2016,2016,46,FALSE
Avondale Heights,3 Clive Ct,4,h,950000,S,Moonee,2016-12,10.5,3034,3,3,761,281,1970,Moonee Valley City Council,-37.7524,144.8714,Western Metropolitan,10/12/2016,2016,46,FALSE
Avondale Heights,2/6 Nelson Ct,2,t,585000,S,Barry,2017-02,10.5,3034,1,1,136,181,2012,Moonee Valley City Council,-37.7623,144.8613,Western Metropolitan,11/2/2017,2017,5,TRUE
Avondale Heights,2/10 Military Rd,2,u,440000,S,Nelson,2017-03,10.5,3034,1,1,263,117.5,1999,Moonee Valley City Council,-37.7697,144.8657,Western Metropolitan,18/3/2017,2017,18,TRUE
Avondale Heights,8 Herbert St,3,h,705000,S,Nelson,2016-05,10.5,3034,1,1,581,106,1960,Moonee Valley City Council,-37.7691,144.8575,Western Metropolitan,22/5/2016,2016,56,FALSE
Avondale Heights,2 Hillman Ct,4,h,1100000,VB,Brad,2016-05,10.5,3034,3,2,873,395,1992,Moonee Valley City Council,-37.7609,144.8639,Western Metropolitan,22/5/2016,2016,24,TRUE
Avondale Heights,20 Westminster Dr,3,h,892500,S,Nelson,2016-05,10.5,3034,1,1,586,118,1965,Moonee Valley City Council,-37.7642,144.8603,Western Metropolitan,22/5/2016,2016,51,FALSE
Avondale Heights,1/24 Bordeaux St,2,h,522500,S,Nelson,2016-09,10.5,3034,1,1,220,101,1995,Moonee Valley City Council,-37.756,144.8641,Western Metropolitan,24/9/2016,2016,21,TRUE
Avondale Heights,72 Military Rd,4,h,680000,PI,Nelson,2016-09,10.5,3034,2,2,554,140,1960,Moonee Valley City Council,-37.7649,144.8633,Western Metropolitan,24/9/2016,2016,56,FALSE
Avondale Heights,1/5 South Tce,3,u,500000,S,Nelson,2016-09,10.5,3034,1,1,260,117.5,1990,Moonee Valley City Council,-37.7507,144.8576,Western Metropolitan,24/9/2016,2016,26,TRUE
Avondale Heights,1/4 Weyburn Pl,2,t,550000,SP,Moonee,2016-09,10.5,3034,1,2,158,181,1993,Moonee Valley City Council,-37.7592,144.8681,Western Metropolitan,24/9/2016,2016,23,TRUE
Avondale Heights,2 Drake Ct,3,h,875000,S,Edward,2017-02,10.5,3034,1,3,812,117,1960,Moonee Valley City Council,-37.765,144.8578,Western Metropolitan,25/2/2017,2017,57,FALSE
Avondale Heights,109 North Rd,4,h,762000,S,Nelson,2016-07,10.5,3034,2,2,589,150,1961,Moonee Valley City Council,-37.7573,144.8534,Western Metropolitan,26/7/2016,2016,55,FALSE
Avondale Heights,2/4 Carmyle Ct,2,u,411000,PI,Barry,2016-11,10.5,3034,1,1,0,85,1995,Moonee Valley City Council,-37.7608,144.863,Western Metropolitan,27/11/2016,2016,21,TRUE
Avondale Heights,10 Skewes St,3,h,805000,S,Nelson,2016-11,10.5,3034,2,2,593,103,1970,Moonee Valley City Council,-37.7607,144.8581,Western Metropolitan,27/11/2016,2016,46,FALSE
Avondale Heights,62 Skewes St,4,h,890000,S,Moonee,2016-11,10.5,3034,2,4,585,132,1960,Moonee Valley City Council,-37.757,144.8566,Western Metropolitan,27/11/2016,2016,56,FALSE
Avondale Heights,43 Skewes St,3,h,634000,S,Nelson,2016-05,10.5,3034,2,1,582,153,1950,Moonee Valley City Council,-37.7584,144.8568,Western Metropolitan,28/5/2016,2016,66,FALSE
Avondale Heights,63 Doyle St,3,h,642000,SP,Moonee,2016-08,10.5,3034,1,1,590,132,1960,Moonee Valley City Council,-37.7567,144.8572,Western Metropolitan,28/8/2016,2016,56,FALSE
Balaclava,18 Linton St,4,h,1819000,S,Gary,2016-09,6.6,3183,2,1,244,180,1900,Port Phillip City Council,-37.8668,144.9928,Southern Metropolitan,3/9/2016,2016,116,FALSE
Balaclava,7/72 Grosvenor St,2,u,410000,PI,hockingstuart,2016-12,6.6,3183,1,2,0,61,1965,Port Phillip City Council,-37.8731,144.9958,Southern Metropolitan,3/12/2016,2016,51,FALSE
Balaclava,1/34 Gourlay St,2,t,1015000,S,Gary,2016-11,6.6,3183,1,2,114,120,2000,Port Phillip City Council,-37.8723,144.9961,Southern Metropolitan,7/11/2016,2016,16,TRUE
Balaclava,4/9 Gourlay St,2,u,502500,S,Buxton,2016-10,6.6,3183,1,1,0,65,1960,Port Phillip City Council,-37.8725,144.9952,Southern Metropolitan,15/10/2016,2016,56,FALSE
Balaclava,1/22 Sycamore Gr,2,u,520000,S,Gary,2016-10,6.6,3183,1,0,0,58,1970,Port Phillip City Council,-37.8742,144.9972,Southern Metropolitan,15/10/2016,2016,46,FALSE
Balaclava,6/23 Gourlay St,2,u,442000,SP,Buxton,2016-09,6.6,3183,1,1,0,61,1960,Port Phillip City Council,-37.8726,144.9962,Southern Metropolitan,17/9/2016,2016,56,FALSE
Balaclava,6 Blenheim St,3,h,1193000,S,McGrath,2016-06,6.6,3183,1,1,178,100,1920,Port Phillip City Council,-37.8663,144.9948,Southern Metropolitan,18/6/2016,2016,96,FALSE
Balaclava,3/20 Orange Gr,2,u,416000,S,Chisholm,2016-06,6.6,3183,1,1,0,49,1960,Port Phillip City Council,-37.8678,144.9966,Southern Metropolitan,18/6/2016,2016,56,FALSE
Balaclava,2/19 Camden St,2,u,474000,S,hockingstuart,2016-05,6.6,3183,1,1,0,59,1970,Port Phillip City Council,-37.8667,144.9917,Southern Metropolitan,22/5/2016,2016,46,FALSE
Balaclava,1/17 Albion St,2,h,981000,S,Buxton,2017-02,6.6,3183,1,0,159,84,1930,Port Phillip City Council,-37.874,144.9933,Southern Metropolitan,25/2/2017,2017,87,FALSE
Balaclava,10 Grosvenor St,3,h,1690000,S,McGrath,2017-02,6.6,3183,2,2,339,159,1890,Port Phillip City Council,-37.872,144.9909,Southern Metropolitan,25/2/2017,2017,127,FALSE
Balaclava,3/33 Gourlay St,2,u,540000,VB,McGrath,2016-06,6.6,3183,1,1,483,51,1970,Port Phillip City Council,-37.8727,144.9969,Southern Metropolitan,27/6/2016,2016,46,FALSE
Balaclava,41 Marlborough St,3,h,1080000,S,Buxton,2016-06,6.6,3183,1,1,157,100,1928,Port Phillip City Council,-37.8696,144.9925,Southern Metropolitan,27/6/2016,2016,88,FALSE
Balwyn,166 Gordon St,2,h,2100000,S,Marshall,2016-09,9.7,3103,1,1,659,123,1920,Boroondara City Council,-37.8094,145.0807,Southern Metropolitan,3/9/2016,2016,96,FALSE
Balwyn,36 Narrak Rd,4,h,1800000,VB,Marshall,2016-09,9.7,3103,2,2,715,218,1985,Boroondara City Council,-37.811,145.0958,Southern Metropolitan,3/9/2016,2016,31,FALSE
Balwyn,2/16 Westminster St,2,t,1255000,S,Noel,2016-09,9.7,3103,1,1,208,129,2000,Boroondara City Council,-37.8128,145.0975,Southern Metropolitan,3/9/2016,2016,16,TRUE
Balwyn,2/74 Balwyn Rd,3,u,1070000,SA,Philip,2016-12,9.7,3103,2,2,206,112,1998,Boroondara City Council,-37.8161,145.0812,Southern Metropolitan,3/12/2016,2016,18,TRUE
Balwyn,112 Belmore Rd,5,h,2570000,PI,RT,2016-12,9.7,3103,3,2,715,420,2009,Boroondara City Council,-37.8028,145.0768,Southern Metropolitan,3/12/2016,2016,7,TRUE
Balwyn,27 Bevan St,4,h,2400000,VB,RW,2016-12,9.7,3103,2,2,744,226,1985,Boroondara City Council,-37.8147,145.0748,Southern Metropolitan,3/12/2016,2016,31,FALSE
Balwyn,5/14 Parring Rd,2,u,806000,S,Noel,2016-12,9.7,3103,1,1,122,97,1977,Boroondara City Council,-37.8124,145.0916,Southern Metropolitan,3/12/2016,2016,39,FALSE
Balwyn,349 Union Rd,6,h,4000000,VB,Jellis,2016-12,9.7,3103,4,7,2051,449,1935,Boroondara City Council,-37.8051,145.1016,Southern Metropolitan,3/12/2016,2016,81,FALSE
Balwyn,22 Yongala St,5,h,2250000,PI,Noel,2016-12,9.7,3103,3,2,600,356,2006,Boroondara City Council,-37.8061,145.0801,Southern Metropolitan,3/12/2016,2016,10,TRUE
Balwyn,9/5 Boston Rd,3,h,1140000,S,Nelson,2016-06,9.7,3103,2,2,175,226,1976,Boroondara City Council,-37.8162,145.0771,Southern Metropolitan,4/6/2016,2016,40,FALSE
Balwyn,40 Metung St,5,h,2800000,VB,Marshall,2016-06,9.7,3103,3,2,678,349,2001,Boroondara City Council,-37.8048,145.0708,Southern Metropolitan,4/6/2016,2016,15,TRUE
Balwyn,142 Balwyn Rd,2,h,1850000,VB,Fletchers,2016-08,9.7,3103,1,1,1015,166,1930,Boroondara City Council,-37.8074,145.0826,Southern Metropolitan,6/8/2016,2016,86,FALSE
Balwyn,9/11 Parring Rd,2,u,805000,S,Noel,2016-08,9.7,3103,1,1,209,88,1975,Boroondara City Council,-37.8125,145.0901,Southern Metropolitan,6/8/2016,2016,41,FALSE
Balwyn,4/3 King St,3,h,700000,VB,Marshall,2016-05,9.7,3103,1,1,188,110,1970,Boroondara City Council,-37.8065,145.065,Southern Metropolitan,7/5/2016,2016,46,FALSE
Balwyn,3/18 Weir St,2,h,500000,S,Marshall,2016-05,9.7,3103,1,1,0,72,1960,Boroondara City Council,-37.8162,145.0841,Southern Metropolitan,7/5/2016,2016,56,FALSE
Balwyn,3 Westminster St,3,h,2125000,SP,Jellis,2016-05,9.7,3103,2,2,699,252,1985,Boroondara City Council,-37.814,145.0966,Southern Metropolitan,7/5/2016,2016,31,FALSE
Balwyn,13 Naroo St,4,h,1800000,PI,Jellis,2016-10,9.7,3103,2,2,577,200,1948,Boroondara City Council,-37.8032,145.0693,Southern Metropolitan,8/10/2016,2016,68,FALSE
Balwyn,101/201 Whitehorse Rd,2,u,635000,S,Fletchers,2016-10,9.7,3103,1,1,0,70,2014,Boroondara City Council,-37.8116,145.0724,Southern Metropolitan,8/10/2016,2016,2,TRUE
Balwyn,1/252 Union Rd,2,u,526000,S,hockingstuart,2016-09,9.7,3103,1,1,0,73,1960,Boroondara City Council,-37.8144,145.0993,Southern Metropolitan,10/9/2016,2016,56,FALSE
Balwyn,1/18 Belmore Rd,3,h,905000,S,Kay,2016-12,9.7,3103,1,2,281,150,1995,Boroondara City Council,-37.8013,145.0652,Southern Metropolitan,10/12/2016,2016,21,TRUE
Balwyn,316 Belmore Rd,4,h,1750000,PI,Ascend,2016-12,9.7,3103,3,2,453,308,2016,Boroondara City Council,-37.8044,145.1006,Southern Metropolitan,10/12/2016,2016,0,TRUE
Balwyn,11/22 Brenbeal St,2,t,760000,S,Christopher,2016-12,9.7,3103,1,1,121,100,1960,Boroondara City Council,-37.8112,145.0881,Southern Metropolitan,10/12/2016,2016,56,FALSE
Balwyn,3/3 Iramoo St,3,t,1367000,S,Jellis,2016-12,9.7,3103,2,2,219,164,2003,Boroondara City Council,-37.8125,145.0849,Southern Metropolitan,10/12/2016,2016,13,TRUE
Balwyn,25 Percy St,5,h,2550000,S,Marshall,2016-12,9.7,3103,3,2,642,226,1930,Boroondara City Council,-37.8096,145.0735,Southern Metropolitan,10/12/2016,2016,86,FALSE
Balwyn,2/8 Evelina St,4,t,1400000,PI,Noel,2016-11,9.7,3103,3,2,241,240,2009,Boroondara City Council,-37.8042,145.1042,Southern Metropolitan,12/11/2016,2016,7,TRUE
Balwyn,5 Millah Rd,4,h,3270000,S,Fletchers,2016-11,9.7,3103,2,4,935,241,1927,Boroondara City Council,-37.8157,145.0795,Southern Metropolitan,12/11/2016,2016,89,FALSE
Balwyn,6/10 Brenbeal St,2,u,625000,PI,Jellis,2016-08,9.7,3103,1,1,115,104,1960,Boroondara City Council,-37.8122,145.0879,Southern Metropolitan,13/8/2016,2016,56,FALSE
Balwyn,38 Frederick St,4,h,2730000,S,RT,2016-10,9.7,3103,3,2,674,336,1997,Boroondara City Council,-37.8068,145.0786,Southern Metropolitan,15/10/2016,2016,19,TRUE
Balwyn,6/29 Weir St,2,u,460000,VB,Jellis,2016-04,9.7,3103,1,1,0,79,1950,Boroondara City Council,-37.8152,145.0839,Southern Metropolitan,16/4/2016,2016,66,FALSE
Balwyn,3/94 Balwyn Rd,2,u,1053000,S,Fletchers,2016-07,9.7,3103,1,2,231,98,1985,Boroondara City Council,-37.8123,145.0821,Southern Metropolitan,16/7/2016,2016,31,FALSE
Balwyn,1/7 Boston Rd,3,h,1800000,VB,Marshall,2016-07,9.7,3103,2,2,380,226,1980,Boroondara City Council,-37.8161,145.0772,Southern Metropolitan,16/7/2016,2016,36,FALSE
Balwyn,1/32 Yerrin St,3,t,1472000,S,Noel,2016-07,9.7,3103,2,2,306,170,1995,Boroondara City Council,-37.8106,145.0848,Southern Metropolitan,16/7/2016,2016,21,TRUE
Balwyn,5/95 Balwyn Rd,2,u,754000,PI,Marshall,2017-03,9.7,3103,1,1,87,88,1990,Boroondara City Council,-37.8134,145.081,Southern Metropolitan,18/3/2017,2017,27,TRUE
Balwyn,29 Bevan St,4,h,2188000,S,Marshall,2016-11,9.7,3103,2,2,752,253,1981,Boroondara City Council,-37.8149,145.0747,Southern Metropolitan,19/11/2016,2016,35,FALSE
Balwyn,2/30 Kalimna St,2,u,755000,PI,Noel,2016-11,9.7,3103,1,1,213,92,1980,Boroondara City Council,-37.8092,145.0789,Southern Metropolitan,19/11/2016,2016,36,FALSE
Balwyn,262 Union Rd,4,h,3290000,S,Jellis,2016-05,9.7,3103,3,2,1007,350,1910,Boroondara City Council,-37.8135,145.0995,Southern Metropolitan,22/5/2016,2016,106,FALSE
Balwyn,27 Metung St,4,h,2410000,S,Fletchers,2016-09,9.7,3103,2,1,685,207,1940,Boroondara City Council,-37.8056,145.071,Southern Metropolitan,24/9/2016,2016,76,FALSE
Balwyn,4/35 Weir St,2,u,650000,S,Jellis,2016-09,9.7,3103,1,1,0,150,1960,Boroondara City Council,-37.8147,145.084,Southern Metropolitan,24/9/2016,2016,56,FALSE
Balwyn,26 Wills St,4,h,2000000,PI,hockingstuart,2016-06,9.7,3103,1,2,739,291,1930,Boroondara City Council,-37.8039,145.0631,Southern Metropolitan,27/6/2016,2016,86,FALSE
Balwyn,165 Balwyn Rd,4,h,1900000,S,Mandy,2016-11,9.7,3103,2,1,665,155,1940,Boroondara City Council,-37.8057,145.0825,Southern Metropolitan,27/11/2016,2016,76,FALSE
Balwyn,17 Knutsford St,3,h,3401000,S,Jellis,2016-11,9.7,3103,2,1,706,166,1930,Boroondara City Council,-37.8161,145.0748,Southern Metropolitan,27/11/2016,2016,86,FALSE
Balwyn,47 Naroo St,3,h,1750000,VB,Jellis,2016-11,9.7,3103,2,3,613,193,1943,Boroondara City Council,-37.8056,145.0688,Southern Metropolitan,27/11/2016,2016,73,FALSE
Balwyn,1/74 Balwyn Rd,3,t,1100000,S,hockingstuart,2016-05,9.7,3103,2,1,259,167,1940,Boroondara City Council,-37.8161,145.0809,Southern Metropolitan,28/5/2016,2016,76,FALSE
Balwyn,112 Belmore Rd,5,h,3020000,PI,Jellis,2016-05,9.7,3103,3,2,715,420,2009,Boroondara City Council,-37.8028,145.0768,Southern Metropolitan,28/5/2016,2016,7,TRUE
Balwyn,12 Wills St,5,h,2450000,S,Marshall,2016-05,9.7,3103,2,2,981,260,1960,Boroondara City Council,-37.8058,145.0627,Southern Metropolitan,28/5/2016,2016,56,FALSE
Balwyn,3/12 Brenbeal St,2,u,730000,S,hockingstuart,2016-08,9.7,3103,1,1,130,80,1960,Boroondara City Council,-37.812,145.0876,Southern Metropolitan,28/8/2016,2016,56,FALSE
Balwyn,321a Union Rd,3,h,1500000,SP,Noel,2016-08,9.7,3103,2,2,404,190,2011,Boroondara City Council,-37.8075,145.1011,Southern Metropolitan,28/8/2016,2016,5,TRUE
Balwyn,46 Yongala St,3,h,1850000,S,Fletchers,2016-08,9.7,3103,1,1,607,226,1950,Boroondara City Council,-37.8058,145.0781,Southern Metropolitan,28/8/2016,2016,66,FALSE
Balwyn,33 Power St,4,h,1700000,VB,Marshall,2016-07,9.7,3103,1,1,672,115,1935,Boroondara City Council,-37.8099,145.0792,Southern Metropolitan,30/7/2016,2016,81,FALSE
Balwyn North,3/41 Clifton St,3,t,1315000,S,hockingstuart,2016-09,9.2,3104,2,2,260,167,2000,Boroondara City Council,-37.7966,145.1021,Southern Metropolitan,3/9/2016,2016,16,TRUE
Balwyn North,153 Doncaster Rd,3,h,1500000,PI,Jellis,2016-09,9.2,3104,2,1,778,154,1950,Boroondara City Council,-37.7939,145.0789,Southern Metropolitan,3/9/2016,2016,66,FALSE
Balwyn North,19 Jacka St,4,h,3230000,S,Jellis,2016-09,9.2,3104,4,3,1135,275,1960,Boroondara City Council,-37.8014,145.0892,Southern Metropolitan,3/9/2016,2016,56,FALSE
Balwyn North,25 Bolinda Rd,4,h,1905000,S,Noel,2016-12,9.2,3104,2,2,647,185,1955,Boroondara City Council,-37.7917,145.0868,Southern Metropolitan,3/12/2016,2016,61,FALSE
Balwyn North,3 Dumblane St,5,h,3300000,PI,hockingstuart,2016-12,9.2,3104,4,2,760,477,2015,Boroondara City Council,-37.7907,145.0907,Southern Metropolitan,3/12/2016,2016,1,TRUE
Balwyn North,30 Hood St,4,h,1900000,VB,Fletchers,2016-12,9.2,3104,2,2,642,215,1955,Boroondara City Council,-37.7988,145.0726,Southern Metropolitan,3/12/2016,2016,61,FALSE
Balwyn North,36 Kenny St,3,h,2251000,S,Marshall,2016-12,9.2,3104,1,2,888,137,1950,Boroondara City Council,-37.8002,145.0949,Southern Metropolitan,3/12/2016,2016,66,FALSE
Balwyn North,13 Riverview Rd,4,h,2205000,PI,RW,2016-12,9.2,3104,2,2,750,214,1950,Boroondara City Council,-37.7906,145.0788,Southern Metropolitan,3/12/2016,2016,66,FALSE
Balwyn North,43 Sweyn St,3,h,1265000,S,hockingstuart,2016-12,9.2,3104,2,1,347,160,2011,Boroondara City Council,-37.7947,145.1035,Southern Metropolitan,3/12/2016,2016,5,TRUE
Balwyn North,14 Kawarren St,4,h,1750000,S,Kay,2017-03,9.2,3104,2,2,673,185,1960,Boroondara City Council,-37.7856,145.0918,Southern Metropolitan,4/3/2017,2017,57,FALSE
Balwyn North,88 Longview Rd,3,h,1450000,VB,Jellis,2017-03,9.2,3104,1,2,665,124,1950,Boroondara City Council,-37.7862,145.0781,Southern Metropolitan,4/3/2017,2017,67,FALSE
Balwyn North,113 Maud St,4,h,2614000,S,Fletchers,2017-03,9.2,3104,2,2,772,150,1955,Boroondara City Council,-37.7959,145.0787,Southern Metropolitan,4/3/2017,2017,62,FALSE
Balwyn North,6 Stuart Ct,4,h,1825000,S,Fletchers,2017-03,9.2,3104,2,3,736,225,1958,Boroondara City Council,-37.7944,145.1028,Southern Metropolitan,4/3/2017,2017,59,FALSE
Balwyn North,325 Belmore Rd,5,h,3250000,PI,Jellis,2016-08,9.2,3104,4,2,886,520,2013,Boroondara City Council,-37.804,145.0951,Southern Metropolitan,6/8/2016,2016,3,TRUE
Balwyn North,15 Ellendale St,3,t,1150000,S,Christopher,2016-08,9.2,3104,2,1,207,144,2003,Boroondara City Council,-37.7893,145.092,Southern Metropolitan,6/8/2016,2016,13,TRUE
Balwyn North,85 Tannock St,3,h,1575000,PI,Noel,2016-08,9.2,3104,2,2,645,196,1953,Boroondara City Council,-37.7851,145.0957,Southern Metropolitan,6/8/2016,2016,63,FALSE
Balwyn North,30 Clifton St,4,h,1572000,S,hockingstuart,2016-05,9.2,3104,2,2,662,330,1965,Boroondara City Council,-37.798,145.1007,Southern Metropolitan,7/5/2016,2016,51,FALSE
Balwyn North,108 Bulleen Rd,5,h,1750000,VB,Jellis,2016-11,9.2,3104,3,2,705,365,2013,Boroondara City Council,-37.7851,145.0775,Southern Metropolitan,7/11/2016,2016,3,TRUE
Balwyn North,5 Carrington St,4,h,1850000,VB,Jellis,2016-11,9.2,3104,2,2,619,254,1990,Boroondara City Council,-37.8025,145.0843,Southern Metropolitan,7/11/2016,2016,26,TRUE
Balwyn North,3 Clive Ct,4,h,2130000,PI,RW,2016-10,9.2,3104,3,2,1274,275,1970,Boroondara City Council,-37.7822,145.0907,Southern Metropolitan,8/10/2016,2016,46,FALSE
Balwyn North,7 Page St,5,h,3690000,S,RW,2016-10,9.2,3104,4,2,624,154,1967,Boroondara City Council,-37.802,145.0797,Southern Metropolitan,8/10/2016,2016,49,FALSE
Balwyn North,8 Cash St,4,h,1740000,VB,Jellis,2016-09,9.2,3104,2,2,610,275,1993,Boroondara City Council,-37.7843,145.0891,Southern Metropolitan,10/9/2016,2016,23,TRUE
Balwyn North,7 Grieve St,4,h,2575000,PI,Jellis,2016-09,9.2,3104,3,2,657,355,2006,Boroondara City Council,-37.7981,145.0904,Southern Metropolitan,10/9/2016,2016,10,TRUE
Balwyn North,39 Kawarren St,4,h,1388800,S,Jellis,2016-09,9.2,3104,2,1,517,247,1970,Boroondara City Council,-37.783,145.0926,Southern Metropolitan,10/9/2016,2016,46,FALSE
Balwyn North,185 Doncaster Rd,4,h,1702000,PI,Jellis,2016-12,9.2,3104,2,2,715,196,1939,Boroondara City Council,-37.7943,145.083,Southern Metropolitan,10/12/2016,2016,77,FALSE
Balwyn North,41 Helston St,4,h,1800000,VB,Fletchers/One,2016-12,9.2,3104,2,4,587,165,1960,Boroondara City Council,-37.7841,145.0953,Southern Metropolitan,10/12/2016,2016,56,FALSE
Balwyn North,15 Moody St,4,h,2910000,S,Marshall,2016-12,9.2,3104,3,2,1070,247,1992,Boroondara City Council,-37.7975,145.0716,Southern Metropolitan,10/12/2016,2016,24,TRUE
Balwyn North,141 Greythorn Rd,5,h,1500000,S,hockingstuart,2016-06,9.2,3104,1,1,800,196,1950,Boroondara City Council,-37.8023,145.0976,Southern Metropolitan,12/6/2016,2016,66,FALSE
Balwyn North,23a The Boulevard,5,h,2200000,VB,Noel,2016-06,9.2,3104,3,2,900,355,1955,Boroondara City Council,-37.7868,145.0677,Southern Metropolitan,12/6/2016,2016,61,FALSE
Balwyn North,1 Bolinda Rd,3,h,1700000,VB,Fletchers,2016-08,9.2,3104,2,3,763,168,1960,Boroondara City Council,-37.7935,145.0865,Southern Metropolitan,13/8/2016,2016,56,FALSE
Balwyn North,35 Corhampton Rd,3,h,1750000,VB,Noel,2016-08,9.2,3104,1,2,854,196,1948,Boroondara City Council,-37.7971,145.0672,Southern Metropolitan,13/8/2016,2016,68,FALSE
Balwyn North,56a Clifton St,3,h,1230000,S,Noel,2016-05,9.2,3104,3,1,310,188,2012,Boroondara City Council,-37.7949,145.1014,Southern Metropolitan,14/5/2016,2016,4,TRUE
Balwyn North,2 Tudor Ct,7,h,2600000,PI,Barry,2016-05,9.2,3104,3,3,637,529,2008,Boroondara City Council,-37.7898,145.0967,Southern Metropolitan,14/5/2016,2016,8,TRUE
Balwyn North,28 Walnut Rd,4,h,1950000,S,Fletchers,2016-05,9.2,3104,3,2,665,232,1970,Boroondara City Council,-37.7889,145.0904,Southern Metropolitan,14/5/2016,2016,46,FALSE
Balwyn North,14 Dumblane St,5,h,1750000,PI,RW,2016-10,9.2,3104,2,2,710,170,1955,Boroondara City Council,-37.7907,145.0916,Southern Metropolitan,15/10/2016,2016,61,FALSE
Balwyn North,64 Greythorn Rd,5,h,2000000,S,Fletchers,2016-10,9.2,3104,2,2,1002,244,1950,Boroondara City Council,-37.796,145.0984,Southern Metropolitan,15/10/2016,2016,66,FALSE
Balwyn North,42 Maud St,3,h,1480000,PI,Jellis,2016-10,9.2,3104,1,4,605,116,1950,Boroondara City Council,-37.7951,145.0696,Southern Metropolitan,15/10/2016,2016,66,FALSE
Balwyn North,54 Sutton St,3,h,1818000,S,Fletchers,2016-10,9.2,3104,1,1,722,90,1930,Boroondara City Council,-37.7956,145.0829,Southern Metropolitan,15/10/2016,2016,86,FALSE
Balwyn North,48 Hosken St,4,h,2525000,PI,Jellis,2016-04,9.2,3104,2,2,1235,196,1960,Boroondara City Council,-37.7988,145.089,Southern Metropolitan,16/4/2016,2016,56,FALSE
Balwyn North,17 Stephens St,4,h,3360000,S,Assisi,2016-04,9.2,3104,3,1,904,420,2003,Boroondara City Council,-37.797,145.086,Southern Metropolitan,16/4/2016,2016,13,TRUE
Balwyn North,20 Ajax St,4,h,1620000,S,Jellis,2016-07,9.2,3104,2,1,654,196,1960,Boroondara City Council,-37.7885,145.0854,Southern Metropolitan,16/7/2016,2016,56,FALSE
Balwyn North,15 Illawarra Rd,3,h,1903000,S,Noel,2016-07,9.2,3104,1,2,713,720,1950,Boroondara City Council,-37.7982,145.0816,Southern Metropolitan,16/7/2016,2016,66,FALSE
Balwyn North,12 Clifton St,4,h,1720000,PI,Marshall,2017-03,9.2,3104,3,2,869,170,1950,Boroondara City Council,-37.8002,145.0999,Southern Metropolitan,18/3/2017,2017,67,FALSE
Balwyn North,9 Seattle St,4,h,1675000,S,Fletchers,2017-03,9.2,3104,2,2,667,201,1974,Boroondara City Council,-37.7835,145.0883,Southern Metropolitan,18/3/2017,2017,43,FALSE
Balwyn North,16 Sylvan St,4,t,1680000,S,Noel,2017-03,9.2,3104,3,1,362,200,2014,Boroondara City Council,-37.7987,145.0788,Southern Metropolitan,18/3/2017,2017,3,TRUE
Balwyn North,9 Stephens St,5,h,4000000,PI,Marshall,2016-06,9.2,3104,5,4,1364,518,2013,Boroondara City Council,-37.7961,145.0859,Southern Metropolitan,18/6/2016,2016,3,TRUE
Balwyn North,5 Grieve St,4,h,2205000,S,Fletchers,2016-11,9.2,3104,2,2,1010,250,1950,Boroondara City Council,-37.7982,145.0903,Southern Metropolitan,19/11/2016,2016,66,FALSE
Balwyn North,28 Severn St,3,h,2100000,VB,Jellis,2016-11,9.2,3104,2,3,949,175,1940,Boroondara City Council,-37.796,145.0696,Southern Metropolitan,19/11/2016,2016,76,FALSE
Balwyn North,3/1 Corhampton Rd,2,h,685000,SP,Jellis,2016-05,9.2,3104,1,1,177,85,1975,Boroondara City Council,-37.7935,145.0679,Southern Metropolitan,22/5/2016,2016,41,FALSE
Balwyn North,85a Woodville St,3,h,1335000,S,Fletchers,2016-05,9.2,3104,2,2,368,177,2009,Boroondara City Council,-37.7846,145.0935,Southern Metropolitan,22/5/2016,2016,7,TRUE
Balwyn North,41 Helston St,4,h,1900000,VB,One,2016-08,9.2,3104,2,4,587,165,1960,Boroondara City Council,-37.7841,145.0953,Southern Metropolitan,22/8/2016,2016,56,FALSE
Balwyn North,3/52 Maud St,2,u,735000,S,Christopher,2016-04,9.2,3104,1,1,1075,112,1970,Boroondara City Council,-37.7953,145.0712,Southern Metropolitan,23/4/2016,2016,46,FALSE
Balwyn North,3/48 Alpha St,2,u,1040000,S,Fletchers,2016-09,9.2,3104,1,1,250,112,1995,Boroondara City Council,-37.7996,145.0959,Southern Metropolitan,24/9/2016,2016,21,TRUE
Balwyn North,19 Hedderwick St,4,h,1250000,VB,Marshall,2017-02,9.2,3104,2,2,644,153,1950,Boroondara City Council,-37.7997,145.0993,Southern Metropolitan,25/2/2017,2017,67,FALSE
Balwyn North,34 Kawarren St,6,h,1900000,S,Fletchers,2017-02,9.2,3104,3,2,808,196,1974,Boroondara City Council,-37.7842,145.0921,Southern Metropolitan,25/2/2017,2017,43,FALSE
Balwyn North,430 Balwyn Rd,5,h,1875000,PI,Fletchers,2016-06,9.2,3104,3,2,842,200,1961,Boroondara City Council,-37.7854,145.0869,Southern Metropolitan,27/6/2016,2016,55,FALSE
Balwyn North,43 Helston St,4,h,1530000,PI,hockingstuart,2016-06,9.2,3104,2,2,701,198,1960,Boroondara City Council,-37.7839,145.0954,Southern Metropolitan,27/6/2016,2016,56,FALSE
Balwyn North,16 Nevada St,4,h,1700000,VB,Jellis,2016-06,9.2,3104,2,5,754,175,1960,Boroondara City Council,-37.786,145.0886,Southern Metropolitan,27/6/2016,2016,56,FALSE
Balwyn North,3/191 Balwyn Rd,3,t,1238000,S,Fletchers,2016-11,9.2,3104,2,2,186,174,2010,Boroondara City Council,-37.8028,145.0828,Southern Metropolitan,27/11/2016,2016,6,TRUE
Balwyn North,233 Balwyn Rd,3,h,1320000,S,Noel,2016-11,9.2,3104,1,0,635,196,1960,Boroondara City Council,-37.7982,145.0839,Southern Metropolitan,27/11/2016,2016,56,FALSE
Balwyn North,5/133 Maud St,2,u,560000,S,hockingstuart,2016-11,9.2,3104,1,1,0,112,1950,Boroondara City Council,-37.7961,145.0808,Southern Metropolitan,27/11/2016,2016,66,FALSE
Balwyn North,11 Milfay Ct,3,h,1651000,S,Nelson,2016-11,9.2,3104,1,2,657,151,1960,Boroondara City Council,-37.7895,145.0985,Southern Metropolitan,27/11/2016,2016,56,FALSE
Balwyn North,23A The Boulevard,5,h,1920000,S,Marshall,2016-11,9.2,3104,3,2,900,355,1955,Boroondara City Council,-37.7868,145.0677,Southern Metropolitan,27/11/2016,2016,61,FALSE
Balwyn North,123 Winfield Rd,5,h,1560000,S,RT,2016-11,9.2,3104,2,3,845,199,1980,Boroondara City Council,-37.7898,145.1021,Southern Metropolitan,27/11/2016,2016,36,FALSE
Balwyn North,15 Ellendale St,3,h,1038000,S,Christopher,2016-05,9.2,3104,2,1,207,144,2003,Boroondara City Council,-37.7893,145.092,Southern Metropolitan,28/5/2016,2016,13,TRUE
Balwyn North,15 Maughan Pde,5,h,1660000,PI,hockingstuart,2016-05,9.2,3104,3,2,737,193,1950,Boroondara City Council,-37.7975,145.0961,Southern Metropolitan,28/5/2016,2016,66,FALSE
Balwyn North,61 Ray Dr,3,h,1260000,PI,hockingstuart,2016-05,9.2,3104,2,2,458,196,1997,Boroondara City Council,-37.7908,145.0991,Southern Metropolitan,28/5/2016,2016,19,TRUE
Balwyn North,40 Stephens St,4,h,2150000,PI,Noel,2016-08,9.2,3104,2,2,730,196,1960,Boroondara City Council,-37.7993,145.0869,Southern Metropolitan,28/8/2016,2016,56,FALSE
Balwyn North,24 Willis St,3,h,1770000,PI,Fletchers,2016-08,9.2,3104,2,1,720,147,1955,Boroondara City Council,-37.7938,145.0838,Southern Metropolitan,28/8/2016,2016,61,FALSE
Balwyn North,2/3 Hatfield St,2,u,691500,S,Fletchers,2016-07,9.2,3104,1,1,0,102,1968,Boroondara City Council,-37.7938,145.0666,Southern Metropolitan,30/7/2016,2016,48,FALSE
Balwyn North,1 Tovey St,5,h,1836000,S,Jellis,2016-07,9.2,3104,2,2,939,196,1957,Boroondara City Council,-37.7998,145.0862,Southern Metropolitan,30/7/2016,2016,59,FALSE
Bentleigh,5/205 Centre Rd,2,u,636000,S,hockingstuart,2016-09,13,3204,1,2,202,92,1974,Glen Eira City Council,-37.9165,145.0259,Southern Metropolitan,3/9/2016,2016,42,FALSE
Bentleigh,1/236 Patterson Rd,3,u,875000,S,hockingstuart,2016-09,13,3204,1,2,348,121,1950,Glen Eira City Council,-37.9273,145.0479,Southern Metropolitan,3/9/2016,2016,66,FALSE
Bentleigh,2/531 South Rd,3,t,895000,PI,Ray,2016-09,13,3204,2,2,362,205,1997,Glen Eira City Council,-37.9336,145.043,Southern Metropolitan,3/9/2016,2016,19,TRUE
Bentleigh,11 Rogers Rd,3,h,1425000,S,Buxton,2016-12,13,3204,2,2,613,143,1960,Glen Eira City Council,-37.9311,145.0428,Southern Metropolitan,3/12/2016,2016,56,FALSE
Bentleigh,3/2 Scotts St,2,t,851000,S,hockingstuart,2016-12,13,3204,1,1,140,250,1970,Glen Eira City Council,-37.9204,145.0443,Southern Metropolitan,3/12/2016,2016,46,FALSE
Bentleigh,11A Mortimore St,3,h,1222500,S,Ray,2016-02,13,3204,2,2,299,181,2000,Glen Eira City Council,-37.9272,145.0406,Southern Metropolitan,4/2/2016,2016,16,TRUE
Bentleigh,174 Jasper Rd,3,t,900000,PI,hockingstuart,2016-06,13,3204,2,1,418,205,1925,Glen Eira City Council,-37.9172,145.0421,Southern Metropolitan,4/6/2016,2016,91,FALSE
Bentleigh,143 Patterson Rd,7,h,1005000,S,Ray,2016-06,13,3204,3,4,607,170,1950,Glen Eira City Council,-37.9269,145.047,Southern Metropolitan,4/6/2016,2016,66,FALSE
Bentleigh,13 Somers St,3,h,1317500,S,Buxton,2016-06,13,3204,1,1,576,127,1945,Glen Eira City Council,-37.9149,145.0254,Southern Metropolitan,4/6/2016,2016,71,FALSE
Bentleigh,8/11 Brentwood St,2,u,360000,PI,Buxton,2016-08,13,3204,1,1,0,69,1965,Glen Eira City Council,-37.9332,145.045,Southern Metropolitan,6/8/2016,2016,51,FALSE
Bentleigh,12b Coates St,4,t,1435000,S,hockingstuart,2016-08,13,3204,3,2,291,212,2012,Glen Eira City Council,-37.9278,145.0337,Southern Metropolitan,6/8/2016,2016,4,TRUE
Bentleigh,156 Patterson Rd,3,h,1110000,S,Buxton,2016-08,13,3204,1,2,692,164,1940,Glen Eira City Council,-37.9263,145.04,Southern Metropolitan,6/8/2016,2016,76,FALSE
Bentleigh,8 Rose St,4,h,2435000,S,Buxton,2016-08,13,3204,2,2,795,250,1928,Glen Eira City Council,-37.9166,145.0314,Southern Metropolitan,6/8/2016,2016,88,FALSE
Bentleigh,23 Yawla St,3,h,1500000,PI,hockingstuart,2016-05,13,3204,2,1,565,222,1940,Glen Eira City Council,-37.9134,145.0263,Southern Metropolitan,7/5/2016,2016,76,FALSE
Bentleigh,39 Luckins Rd,4,h,1300000,PI,Buxton,2016-11,13,3204,2,2,697,194,1940,Glen Eira City Council,-37.9318,145.0474,Southern Metropolitan,7/11/2016,2016,76,FALSE
Bentleigh,592 Centre Rd,3,h,1125000,S,hockingstuart,2016-10,13,3204,1,2,584,116,1948,Glen Eira City Council,-37.9199,145.0477,Southern Metropolitan,8/10/2016,2016,68,FALSE
Bentleigh,74 Fromer St,4,h,1328000,S,hockingstuart,2016-09,13,3204,2,2,610,112,1940,Glen Eira City Council,-37.9291,145.0472,Southern Metropolitan,10/9/2016,2016,76,FALSE
Bentleigh,4 Gordon St,3,h,1340000,S,hockingstuart,2016-09,13,3204,2,1,526,135,1910,Glen Eira City Council,-37.9279,145.031,Southern Metropolitan,10/9/2016,2016,106,FALSE
Bentleigh,58 London St,4,t,1155000,S,Buxton,2016-09,13,3204,3,2,271,205,2010,Glen Eira City Council,-37.9252,145.0494,Southern Metropolitan,10/9/2016,2016,6,TRUE
Bentleigh,182 Patterson Rd,3,h,1275000,S,Buxton,2016-09,13,3204,1,4,758,138,1960,Glen Eira City Council,-37.9267,145.043,Southern Metropolitan,10/9/2016,2016,56,FALSE
Bentleigh,548 Centre Rd,3,h,770000,VB,Woodards,2016-12,13,3204,2,2,0,170,1987,Glen Eira City Council,-37.9193,145.0438,Southern Metropolitan,10/12/2016,2016,29,TRUE
Bentleigh,1/30 Daley St,2,h,855000,SP,Marshall,2016-12,13,3204,1,1,296,103,1940,Glen Eira City Council,-37.9243,145.0376,Southern Metropolitan,10/12/2016,2016,76,FALSE
Bentleigh,13/27 Patterson Rd,2,u,650000,SP,hockingstuart,2016-12,13,3204,1,1,116,92,1960,Glen Eira City Council,-37.9245,145.0336,Southern Metropolitan,10/12/2016,2016,56,FALSE
Bentleigh,112 Tucker Rd,4,h,1815000,S,Buxton,2016-12,13,3204,2,4,902,233,1950,Glen Eira City Council,-37.924,145.0504,Southern Metropolitan,10/12/2016,2016,66,FALSE
Bentleigh,9 Yawla St,4,h,2255000,S,hockingstuart,2016-12,13,3204,3,2,557,353,2008,Glen Eira City Council,-37.9132,145.0251,Southern Metropolitan,10/12/2016,2016,8,TRUE
Bentleigh,66 Fromer St,3,h,1470000,S,McGrath,2017-02,13,3204,2,2,613,170,1950,Glen Eira City Council,-37.929,145.0464,Southern Metropolitan,11/2/2017,2017,67,FALSE
Bentleigh,2/7 Gordon St,2,u,855000,S,hockingstuart,2016-11,13,3204,2,3,226,475,2005,Glen Eira City Council,-37.9274,145.031,Southern Metropolitan,12/11/2016,2016,11,TRUE
Bentleigh,11 Wheatley Rd,4,h,1860000,PI,McGrath,2016-11,13,3204,2,3,855,197,1930,Glen Eira City Council,-37.9163,145.0324,Southern Metropolitan,12/11/2016,2016,86,FALSE
Bentleigh,2/15 Jasper Rd,2,u,725000,S,hockingstuart,2016-08,13,3204,1,1,227,100,1990,Glen Eira City Council,-37.9326,145.0387,Southern Metropolitan,13/8/2016,2016,26,TRUE
Bentleigh,6 Atkinson St,3,h,1293000,S,Buxton,2016-10,13,3204,1,1,632,108,1950,Glen Eira City Council,-37.9282,145.0367,Southern Metropolitan,15/10/2016,2016,66,FALSE
Bentleigh,38 Leckie St,3,h,1390000,S,Buxton,2016-10,13,3204,1,2,723,170,1925,Glen Eira City Council,-37.9203,145.048,Southern Metropolitan,15/10/2016,2016,91,FALSE
Bentleigh,33 Luckins Rd,3,h,1328000,S,Woodards,2016-10,13,3204,2,2,690,245,1970,Glen Eira City Council,-37.9317,145.0469,Southern Metropolitan,15/10/2016,2016,46,FALSE
Bentleigh,4a Rosina St,4,t,1247000,S,hockingstuart,2016-10,13,3204,2,3,354,255,2008,Glen Eira City Council,-37.9326,145.0441,Southern Metropolitan,15/10/2016,2016,8,TRUE
Bentleigh,4 Daley St,3,h,1370000,S,hockingstuart,2016-07,13,3204,1,2,624,143,1950,Glen Eira City Council,-37.9256,145.0374,Southern Metropolitan,16/7/2016,2016,66,FALSE
Bentleigh,15 Wilson St,4,h,1385000,S,hockingstuart,2016-07,13,3204,2,1,576,170,1920,Glen Eira City Council,-37.9152,145.0244,Southern Metropolitan,16/7/2016,2016,96,FALSE
Bentleigh,64 Tucker Rd,3,h,1095000,S,Buxton,2016-09,13,3204,2,1,581,170,1965,Glen Eira City Council,-37.9286,145.0495,Southern Metropolitan,17/9/2016,2016,51,FALSE
Bentleigh,3/18 Bleazby St,2,u,725000,S,hockingstuart,2017-03,13,3204,1,1,677,88,2012,Glen Eira City Council,-37.9173,145.0359,Southern Metropolitan,18/3/2017,2017,5,TRUE
Bentleigh,2/1 Corbie St,3,t,825000,S,Buxton,2017-03,13,3204,2,2,147,149,2007,Glen Eira City Council,-37.9317,145.0352,Southern Metropolitan,18/3/2017,2017,10,TRUE
Bentleigh,77B Fromer St,3,t,1235000,S,Buxton,2017-03,13,3204,2,2,0,160,2012,Glen Eira City Council,-37.9289,145.0478,Southern Metropolitan,18/3/2017,2017,5,TRUE
Bentleigh,19 Godfrey St,5,h,1600000,VB,Gary,2016-06,13,3204,3,2,772,170,1986,Glen Eira City Council,-37.9168,145.04,Southern Metropolitan,18/6/2016,2016,30,TRUE
Bentleigh,5 Luckins Rd,3,h,1165000,PI,Buxton,2016-06,13,3204,1,2,694,125,1950,Glen Eira City Council,-37.9315,145.0445,Southern Metropolitan,18/6/2016,2016,66,FALSE
Bentleigh,13 Wood St,4,h,1910000,S,hockingstuart,2016-06,13,3204,2,4,736,284,1950,Glen Eira City Council,-37.9224,145.0462,Southern Metropolitan,18/6/2016,2016,66,FALSE
Bentleigh,1/7 Uonga Rd,2,u,820000,S,hockingstuart,2016-11,13,3204,1,3,336,109,1960,Glen Eira City Council,-37.929,145.0375,Southern Metropolitan,19/11/2016,2016,56,FALSE
Bentleigh,81 Fromer St,4,h,1430000,S,hockingstuart,2016-08,13,3204,2,2,611,168,1970,Glen Eira City Council,-37.9289,145.0481,Southern Metropolitan,22/8/2016,2016,46,FALSE
Bentleigh,13 Horsley St,2,h,910000,S,Buxton,2016-08,13,3204,1,2,274,96,1970,Glen Eira City Council,-37.9178,145.0413,Southern Metropolitan,22/8/2016,2016,46,FALSE
Bentleigh,11 Wilson St,4,h,2520000,PI,Buxton,2016-08,13,3204,4,2,579,361,2012,Glen Eira City Council,-37.9155,145.0243,Southern Metropolitan,22/8/2016,2016,4,TRUE
Bentleigh,43 Godfrey St,5,h,1900000,S,Woodards,2017-02,13,3204,2,2,567,250,1926,Glen Eira City Council,-37.9144,145.0401,Southern Metropolitan,25/2/2017,2017,91,FALSE
Bentleigh,48 Vickery St,4,h,1650000,S,Hodges,2016-07,13,3204,2,2,570,170,1930,Glen Eira City Council,-37.9139,145.0395,Southern Metropolitan,26/7/2016,2016,86,FALSE
Bentleigh,1a Werona St,2,t,670000,PI,Buxton,2016-07,13,3204,2,1,123,90,2007,Glen Eira City Council,-37.9307,145.0379,Southern Metropolitan,26/7/2016,2016,9,TRUE
Bentleigh,40 Coates St,2,t,680000,PI,Bayside,2016-11,13,3204,1,1,83,107,1998,Glen Eira City Council,-37.9259,145.0341,Southern Metropolitan,27/11/2016,2016,18,TRUE
Bentleigh,8B McKittrick Rd,4,t,1320000,S,Buxton,2016-11,13,3204,3,3,346,220,2010,Glen Eira City Council,-37.9294,145.041,Southern Metropolitan,27/11/2016,2016,6,TRUE
Bentleigh,17 Smith St,6,h,1900000,S,hockingstuart,2016-11,13,3204,3,2,708,275,1988,Glen Eira City Council,-37.9181,145.044,Southern Metropolitan,27/11/2016,2016,28,TRUE
Bentleigh,21 Bruce St,3,h,1535000,S,Buxton,2016-08,13,3204,2,2,572,150,1930,Glen Eira City Council,-37.9148,145.0404,Southern Metropolitan,28/8/2016,2016,86,FALSE
Bentleigh,72 Daley St,4,h,1281000,S,hockingstuart,2016-08,13,3204,1,5,594,150,1940,Glen Eira City Council,-37.9206,145.0383,Southern Metropolitan,28/8/2016,2016,76,FALSE
Bentleigh,22 Hutchinson St,5,h,1385000,S,Buxton,2016-08,13,3204,2,2,664,178,1950,Glen Eira City Council,-37.9241,145.048,Southern Metropolitan,28/8/2016,2016,66,FALSE
Bentleigh,8/187 Tucker Rd,3,u,517500,S,Buxton,2016-08,13,3204,1,1,0,92,1970,Glen Eira City Council,-37.9178,145.0511,Southern Metropolitan,28/8/2016,2016,46,FALSE
Bentleigh,5/9 Whitmuir Rd,2,u,503000,S,Buxton,2016-08,13,3204,1,1,0,92,1960,Glen Eira City Council,-37.9159,145.0285,Southern Metropolitan,28/8/2016,2016,56,FALSE
Bentleigh,11 Wilson St,4,h,2620000,S,Buxton,2016-08,13,3204,4,2,579,361,2012,Glen Eira City Council,-37.9155,145.0243,Southern Metropolitan,28/8/2016,2016,4,TRUE
Bentleigh,6/25 Vickery St,2,u,405000,S,Gary,2016-07,13,3204,1,1,0,92,1968,Glen Eira City Council,-37.9159,145.039,Southern Metropolitan,30/7/2016,2016,48,FALSE
Bentleigh East,30 Veronica St,2,h,825000,S,Buxton,2016-09,13.9,3165,2,1,176,125,2008,Glen Eira City Council,-37.9237,145.0763,Southern Metropolitan,3/9/2016,2016,8,TRUE
Bentleigh East,2a Bessie St,2,u,746000,S,hockingstuart,2016-12,13.9,3165,1,2,281,95,2002,Glen Eira City Council,-37.9255,145.0796,Southern Metropolitan,3/12/2016,2016,14,TRUE
Bentleigh East,19 Denver St,5,h,1275000,SP,Buxton,2016-12,13.9,3165,2,2,683,190,1960,Glen Eira City Council,-37.9333,145.0602,Southern Metropolitan,3/12/2016,2016,56,FALSE
Bentleigh East,1/41 Elizabeth St,3,u,1025000,S,Woodards,2017-03,13.9,3165,2,2,384,120,1999,Glen Eira City Council,-37.9229,145.0557,Southern Metropolitan,4/3/2017,2017,18,TRUE
Bentleigh East,2/25 Birdwood St,2,u,495000,S,Woodards,2016-06,13.9,3165,1,1,76,79,1980,Glen Eira City Council,-37.91,145.0842,Southern Metropolitan,4/6/2016,2016,36,FALSE
Bentleigh East,24 Brooks St,4,h,1220000,S,Hodges,2016-06,13.9,3165,2,2,585,178,1950,Glen Eira City Council,-37.9167,145.0771,Southern Metropolitan,4/6/2016,2016,66,FALSE
Bentleigh East,13 Claronga St,3,h,885000,S,C21,2016-06,13.9,3165,1,2,565,110,1950,Glen Eira City Council,-37.9262,145.0808,Southern Metropolitan,4/6/2016,2016,66,FALSE
Bentleigh East,17a Edinburgh St,3,t,830000,PI,Buxton,2016-06,13.9,3165,2,2,292,141,2012,Glen Eira City Council,-37.9168,145.069,Southern Metropolitan,4/6/2016,2016,4,TRUE
Bentleigh East,1 Konrad St,4,h,1100000,S,Hodges,2016-06,13.9,3165,2,2,633,145.5,1975,Glen Eira City Council,-37.9272,145.0644,Southern Metropolitan,4/6/2016,2016,41,FALSE
Bentleigh East,19 Kurrajong St,3,h,1040000,PI,hockingstuart,2016-08,13.9,3165,2,2,598,145.5,1970,Glen Eira City Council,-37.9132,145.0782,Southern Metropolitan,6/8/2016,2016,46,FALSE
Bentleigh East,34b Lesden St,4,t,1210000,S,hockingstuart,2016-08,13.9,3165,3,2,291,222,2014,Glen Eira City Council,-37.9347,145.0546,Southern Metropolitan,6/8/2016,2016,2,TRUE
Bentleigh East,59 Tambet St,4,t,1160000,S,hockingstuart,2016-08,13.9,3165,2,2,321,180,2006,Glen Eira City Council,-37.914,145.0714,Southern Metropolitan,6/8/2016,2016,10,TRUE
Bentleigh East,24 Barrani St,3,h,1215000,S,Woodards,2016-05,13.9,3165,2,3,730,110,1970,Glen Eira City Council,-37.9119,145.0705,Southern Metropolitan,7/5/2016,2016,46,FALSE
Bentleigh East,71 Bignell Rd,4,h,1200000,S,hockingstuart,2016-05,13.9,3165,2,2,619,191,1960,Glen Eira City Council,-37.9358,145.0688,Southern Metropolitan,7/5/2016,2016,56,FALSE
Bentleigh East,96 Brady Rd,3,h,1050000,S,Buxton,2016-05,13.9,3165,2,2,627,140,1950,Glen Eira City Council,-37.9284,145.0668,Southern Metropolitan,7/5/2016,2016,66,FALSE
Bentleigh East,25 Connie St,5,h,950000,VB,Woodards,2016-05,13.9,3165,2,4,618,146,1950,Glen Eira City Council,-37.9209,145.0757,Southern Metropolitan,7/5/2016,2016,66,FALSE
Bentleigh East,9/7 Derry St,2,u,380000,PI,Buxton,2016-05,13.9,3165,2,1,0,78,1970,Glen Eira City Council,-37.9212,145.0674,Southern Metropolitan,7/5/2016,2016,46,FALSE
Bentleigh East,38 Northam Rd,3,h,1338000,S,Buxton,2016-05,13.9,3165,2,2,610,177,1970,Glen Eira City Council,-37.9231,145.066,Southern Metropolitan,7/5/2016,2016,46,FALSE
Bentleigh East,1/6 Richard St,2,u,651000,S,Gary,2016-05,13.9,3165,1,1,265,150,1960,Glen Eira City Council,-37.9223,145.0747,Southern Metropolitan,7/5/2016,2016,56,FALSE
Bentleigh East,12 Rudyard St,3,h,920000,PI,Buxton,2016-05,13.9,3165,1,3,583,145.5,1955,Glen Eira City Council,-37.9272,145.0804,Southern Metropolitan,7/5/2016,2016,61,FALSE
Bentleigh East,3 Veronica St,3,h,1390000,S,Buxton,2016-05,13.9,3165,2,2,590,118,1960,Glen Eira City Council,-37.9256,145.0757,Southern Metropolitan,7/5/2016,2016,56,FALSE
Bentleigh East,4/19 Gray St,1,u,370000,PI,Buxton,2016-10,13.9,3165,1,1,0,100,1970,Glen Eira City Council,-37.9205,145.0528,Southern Metropolitan,8/10/2016,2016,46,FALSE
Bentleigh East,4 Tambet St,3,h,1100000,SP,Buxton,2016-10,13.9,3165,1,2,578,163,1955,Glen Eira City Council,-37.9186,145.0709,Southern Metropolitan,8/10/2016,2016,61,FALSE
Bentleigh East,21 Wards Gr,4,h,1206000,S,Hodges,2016-10,13.9,3165,1,1,636,138,1940,Glen Eira City Council,-37.925,145.0612,Southern Metropolitan,8/10/2016,2016,76,FALSE
Bentleigh East,2/3 Wonga Ct,2,t,486500,S,hockingstuart,2016-10,13.9,3165,1,1,0,75,1960,Glen Eira City Council,-37.9082,145.0681,Southern Metropolitan,8/10/2016,2016,56,FALSE
Bentleigh East,87 Parkmore Rd,4,h,1415000,S,Buxton,2016-09,13.9,3165,2,2,604,177,1970,Glen Eira City Council,-37.9153,145.0707,Southern Metropolitan,10/9/2016,2016,46,FALSE
Bentleigh East,1A Brian St,4,t,1185000,S,hockingstuart,2016-12,13.9,3165,2,2,305,207,2012,Glen Eira City Council,-37.9245,145.0507,Southern Metropolitan,10/12/2016,2016,4,TRUE
Bentleigh East,13 Brooks St,4,t,1060000,S,Woodards,2016-12,13.9,3165,3,1,313,166,1960,Glen Eira City Council,-37.9164,145.0765,Southern Metropolitan,10/12/2016,2016,56,FALSE
Bentleigh East,41 Bradford St,3,h,845000,S,Ray,2016-11,13.9,3165,2,2,295,145,1998,Glen Eira City Council,-37.9239,145.0781,Southern Metropolitan,12/11/2016,2016,18,TRUE
Bentleigh East,2/41 Elizabeth St,3,t,860000,VB,Buxton,2016-11,13.9,3165,2,1,254,117,1995,Glen Eira City Council,-37.9227,145.0558,Southern Metropolitan,12/11/2016,2016,21,TRUE
Bentleigh East,5b MacKie Rd,3,t,921000,S,Buxton,2016-11,13.9,3165,2,2,167,140,2009,Glen Eira City Council,-37.9219,145.0733,Southern Metropolitan,12/11/2016,2016,7,TRUE
Bentleigh East,1/112 Tambet St,2,h,742500,S,Woodards,2016-11,13.9,3165,1,1,300,135,1960,Glen Eira City Council,-37.9099,145.0726,Southern Metropolitan,12/11/2016,2016,56,FALSE
Bentleigh East,25 Thornton St,3,h,920000,PI,Buxton,2016-11,13.9,3165,2,2,578,120,1950,Glen Eira City Council,-37.9303,145.0805,Southern Metropolitan,12/11/2016,2016,66,FALSE
Bentleigh East,12 Tambet St,2,h,702000,PI,Buxton,2016-08,13.9,3165,1,1,591,102,1960,Glen Eira City Council,-37.9179,145.071,Southern Metropolitan,13/8/2016,2016,56,FALSE
Bentleigh East,2/15 Liverpool St,3,t,805000,S,hockingstuart,2016-05,13.9,3165,2,1,268,117,2000,Glen Eira City Council,-37.9196,145.0691,Southern Metropolitan,14/5/2016,2016,16,TRUE
Bentleigh East,23 Yarraburn Cl,4,h,1100000,S,Hodges,2016-05,13.9,3165,2,1,274,190,2004,Glen Eira City Council,-37.9257,145.0735,Southern Metropolitan,14/5/2016,2016,12,TRUE
Bentleigh East,12 Barrani St,3,h,1050000,S,Woodards,2016-04,13.9,3165,1,4,726,131,1950,Glen Eira City Council,-37.9117,145.0695,Southern Metropolitan,16/4/2016,2016,66,FALSE
Bentleigh East,21 Highview Rd,2,h,722000,S,Buxton,2016-04,13.9,3165,2,1,201,79,2005,Glen Eira City Council,-37.9293,145.0657,Southern Metropolitan,16/4/2016,2016,11,TRUE
Bentleigh East,18 Normanby Rd,3,h,930000,SP,Buxton,2016-04,13.9,3165,1,2,588,133,1960,Glen Eira City Council,-37.9286,145.069,Southern Metropolitan,16/4/2016,2016,56,FALSE
Bentleigh East,93 Tudor St,3,h,921000,S,Buxton,2016-04,13.9,3165,2,1,291,119,2000,Glen Eira City Council,-37.919,145.0829,Southern Metropolitan,16/4/2016,2016,16,TRUE
Bentleigh East,23 York St,4,h,1035000,PI,First,2016-04,13.9,3165,1,2,610,160,1950,Glen Eira City Council,-37.9193,145.0691,Southern Metropolitan,16/4/2016,2016,66,FALSE
Bentleigh East,2/34 Adrian St,3,u,720000,PI,Gary,2016-07,13.9,3165,2,1,228,100,1996,Glen Eira City Council,-37.9329,145.0617,Southern Metropolitan,16/7/2016,2016,20,TRUE
Bentleigh East,7 England St,4,h,1352000,S,hockingstuart,2016-07,13.9,3165,2,2,618,196,1950,Glen Eira City Council,-37.9252,145.0562,Southern Metropolitan,16/7/2016,2016,66,FALSE
Bentleigh East,11b Lilac St,4,t,1005000,SP,Woodards,2016-07,13.9,3165,2,2,296,205,2006,Glen Eira City Council,-37.9197,145.057,Southern Metropolitan,16/7/2016,2016,10,TRUE
Bentleigh East,790 North Rd,5,h,1600000,S,Buxton,2016-07,13.9,3165,2,2,659,315,1930,Glen Eira City Council,-37.906,145.0547,Southern Metropolitan,16/7/2016,2016,86,FALSE
Bentleigh East,26 Almurta Rd,3,h,1200000,S,hockingstuart,2016-09,13.9,3165,1,1,721,120,1970,Glen Eira City Council,-37.9244,145.0665,Southern Metropolitan,17/9/2016,2016,46,FALSE
Bentleigh East,1/57 Brooks St,3,h,780000,PI,Buxton,2016-09,13.9,3165,2,2,421,126,1950,Glen Eira City Council,-37.9168,145.0809,Southern Metropolitan,17/9/2016,2016,66,FALSE
Bentleigh East,48a Celia St,4,t,1250000,PI,Buxton,2016-09,13.9,3165,2,2,314,231,2010,Glen Eira City Council,-37.9299,145.0598,Southern Metropolitan,17/9/2016,2016,6,TRUE
Bentleigh East,8 Leo St,4,h,1110000,S,Buxton,2016-09,13.9,3165,2,2,583,176,1960,Glen Eira City Council,-37.9262,145.0624,Southern Metropolitan,17/9/2016,2016,56,FALSE
Bentleigh East,11 Moylan St,4,h,1690000,S,Gary,2016-09,13.9,3165,2,2,700,165,1950,Glen Eira City Council,-37.9117,145.0534,Southern Metropolitan,17/9/2016,2016,66,FALSE
Bentleigh East,42 Paloma St,3,u,791000,S,Woodards,2016-09,13.9,3165,3,1,391,122,1950,Glen Eira City Council,-37.9149,145.0788,Southern Metropolitan,17/9/2016,2016,66,FALSE
Bentleigh East,601 South Rd,3,h,900000,VB,Beller,2016-09,13.9,3165,1,3,780,140,1940,Glen Eira City Council,-37.9347,145.0507,Southern Metropolitan,17/9/2016,2016,76,FALSE
Bentleigh East,1/51 Valkstone St,3,h,1189000,S,hockingstuart,2016-09,13.9,3165,2,2,337,145.5,2010,Glen Eira City Council,-37.9144,145.0582,Southern Metropolitan,17/9/2016,2016,6,TRUE
Bentleigh East,2/40 Francesco St,3,t,970000,S,Matthew,2017-03,13.9,3165,2,2,267,156,2000,Glen Eira City Council,-37.9176,145.0566,Southern Metropolitan,18/3/2017,2017,17,TRUE
Bentleigh East,1002 North Rd,3,h,823000,S,C21,2017-03,13.9,3165,2,2,213,143,2003,Glen Eira City Council,-37.9079,145.0707,Southern Metropolitan,18/3/2017,2017,14,TRUE
Bentleigh East,40 Waratah St,4,t,950000,PI,Buxton,2017-03,13.9,3165,2,1,450,187,1940,Glen Eira City Council,-37.9133,145.0837,Southern Metropolitan,18/3/2017,2017,77,FALSE
Bentleigh East,1/38 Kennedy St,4,t,1045000,S,Buxton,2016-06,13.9,3165,2,1,316,190,2010,Glen Eira City Council,-37.9198,145.0789,Southern Metropolitan,18/6/2016,2016,6,TRUE
Bentleigh East,2/111 Marlborough St,3,u,800000,PI,Buxton,2016-06,13.9,3165,2,2,252,100,1994,Glen Eira City Council,-37.9085,145.0683,Southern Metropolitan,18/6/2016,2016,22,TRUE
Bentleigh East,2/119 Marlborough St,2,u,655000,S,hockingstuart,2016-06,13.9,3165,1,1,154,80,2000,Glen Eira City Council,-37.9079,145.0685,Southern Metropolitan,18/6/2016,2016,16,TRUE
Bentleigh East,3 Molden St,5,h,1550000,S,Hodges,2016-06,13.9,3165,3,2,623,257,1950,Glen Eira City Council,-37.9066,145.0541,Southern Metropolitan,18/6/2016,2016,66,FALSE
Bentleigh East,2/53 Moylan St,3,h,835000,S,Woodards,2016-06,13.9,3165,1,1,250,105,1980,Glen Eira City Council,-37.9087,145.0537,Southern Metropolitan,18/6/2016,2016,36,FALSE
Bentleigh East,31b Purtell St,4,t,1465000,S,Buxton,2016-06,13.9,3165,2,2,319,256,2015,Glen Eira City Council,-37.9256,145.0533,Southern Metropolitan,18/6/2016,2016,1,TRUE
Bentleigh East,24 Veronica St,3,h,910000,S,Buxton,2016-06,13.9,3165,1,1,587,96,1950,Glen Eira City Council,-37.9241,145.0763,Southern Metropolitan,18/6/2016,2016,66,FALSE
Bentleigh East,2/14 Wamba Rd,3,u,920000,SP,Buxton,2016-06,13.9,3165,2,1,388,123,2007,Glen Eira City Council,-37.9329,145.053,Southern Metropolitan,18/6/2016,2016,9,TRUE
Bentleigh East,14 Charles St,3,t,935000,S,hockingstuart,2016-11,13.9,3165,2,2,230,160,2012,Glen Eira City Council,-37.9179,145.0592,Southern Metropolitan,19/11/2016,2016,4,TRUE
Bentleigh East,14 Florence St,3,h,977000,S,Buxton,2016-11,13.9,3165,1,2,543,163,1970,Glen Eira City Council,-37.9242,145.0705,Southern Metropolitan,19/11/2016,2016,46,FALSE
Bentleigh East,1 Jassa St,3,h,1352000,S,Woodards,2016-11,13.9,3165,1,2,686,122,1950,Glen Eira City Council,-37.9113,145.0765,Southern Metropolitan,19/11/2016,2016,66,FALSE
Bentleigh East,12 Millard St,4,h,1115000,SP,Buxton,2016-11,13.9,3165,2,2,575,160,1960,Glen Eira City Council,-37.9274,145.0654,Southern Metropolitan,19/11/2016,2016,56,FALSE
Bentleigh East,4 Adrian St,3,h,780000,VB,hockingstuart,2016-05,13.9,3165,1,1,710,145.5,1966,Glen Eira City Council,-37.9324,145.0577,Southern Metropolitan,22/5/2016,2016,50,FALSE
Bentleigh East,54 Elizabeth St,3,h,1197000,S,Buxton,2016-05,13.9,3165,1,2,692,147,1949,Glen Eira City Council,-37.9232,145.0563,Southern Metropolitan,22/5/2016,2016,67,FALSE
Bentleigh East,2/10 Matthews Rd,2,u,485000,SP,Buxton,2016-05,13.9,3165,2,2,0,83,2011,Glen Eira City Council,-37.9292,145.0708,Southern Metropolitan,22/5/2016,2016,5,TRUE
Bentleigh East,1/26 Patricia St,3,u,810000,S,Woodards,2016-05,13.9,3165,2,1,316,100,1950,Glen Eira City Council,-37.9245,145.0773,Southern Metropolitan,22/5/2016,2016,66,FALSE
Bentleigh East,39 Shrewsbury St,4,h,1365000,PI,Marshall,2016-05,13.9,3165,1,1,582,151,1960,Glen Eira City Council,-37.9129,145.0598,Southern Metropolitan,22/5/2016,2016,56,FALSE
Bentleigh East,10 Boronia St,4,h,1698888,S,hockingstuart,2016-08,13.9,3165,2,2,598,337,2006,Glen Eira City Council,-37.9138,145.0774,Southern Metropolitan,22/8/2016,2016,10,TRUE
Bentleigh East,6/1126 North Rd,2,u,340000,VB,Gary,2016-08,13.9,3165,1,1,0,100,2012,Glen Eira City Council,-37.9096,145.0843,Southern Metropolitan,22/8/2016,2016,4,TRUE
Bentleigh East,5a Cavalier St,3,t,965000,S,Buxton,2016-09,13.9,3165,2,1,283,28,2010,Glen Eira City Council,-37.9142,145.08,Southern Metropolitan,24/9/2016,2016,6,TRUE
Bentleigh East,2/5 Connie St,3,u,870000,S,Woodards,2016-09,13.9,3165,2,2,365,150,2011,Glen Eira City Council,-37.9225,145.0754,Southern Metropolitan,24/9/2016,2016,5,TRUE
Bentleigh East,123 MacKie Rd,3,h,1161000,S,hockingstuart,2016-09,13.9,3165,2,3,629,168,1950,Glen Eira City Council,-37.912,145.0752,Southern Metropolitan,24/9/2016,2016,66,FALSE
Bentleigh East,11 Melball St,3,h,1266000,S,hockingstuart,2016-09,13.9,3165,1,3,676,146,1970,Glen Eira City Council,-37.9307,145.0531,Southern Metropolitan,24/9/2016,2016,46,FALSE
Bentleigh East,2/8 Rudyard St,3,t,700000,PI,hockingstuart,2016-09,13.9,3165,2,2,194,200,2008,Glen Eira City Council,-37.9272,145.0801,Southern Metropolitan,24/9/2016,2016,8,TRUE
Bentleigh East,2A Barrani St,4,t,1325000,S,Buxton,2017-02,13.9,3165,4,2,363,265,2012,Glen Eira City Council,-37.9116,145.0686,Southern Metropolitan,25/2/2017,2017,5,TRUE
Bentleigh East,2/16 Bessie St,3,u,770000,PI,hockingstuart,2017-02,13.9,3165,2,1,281,132,2005,Glen Eira City Council,-37.9257,145.0811,Southern Metropolitan,25/2/2017,2017,12,TRUE
Bentleigh East,1/6 Brad St,1,u,380000,S,hockingstuart,2017-02,13.9,3165,1,1,0,99,1970,Glen Eira City Council,-37.9315,145.0619,Southern Metropolitan,25/2/2017,2017,47,FALSE
Bentleigh East,98 Brady Rd,4,h,1175000,S,RT,2017-02,13.9,3165,2,2,620,158,1980,Glen Eira City Council,-37.9281,145.0669,Southern Metropolitan,25/2/2017,2017,37,FALSE
Bentleigh East,3 Forrest St,3,h,1200000,S,Woodards,2017-02,13.9,3165,1,1,640,120,1960,Glen Eira City Council,-37.916,145.0776,Southern Metropolitan,25/2/2017,2017,57,FALSE
Bentleigh East,88 MacKie Rd,4,h,1370000,SP,Gary,2017-02,13.9,3165,1,2,684,196,1970,Glen Eira City Council,-37.9147,145.0751,Southern Metropolitan,25/2/2017,2017,47,FALSE
Bentleigh East,4 Mawby Rd,4,h,1433500,S,Hodges,2017-02,13.9,3165,1,1,725,186,1950,Glen Eira City Council,-37.9289,145.0502,Southern Metropolitan,25/2/2017,2017,67,FALSE
